nombre_comercial,razon_social,actividad_economica,numero_de_personal,tipo_vial,nombre_vial,tipo_vial_1,nombre_vial_1,tipo_vial_2,nombre_vial_2,tipo_vial_3,nombre_vial_3,letra_ext,edificio,edificio_piso,letra_int,tipo_asentamiento,nombre_asentamiento,tipo_centro_comercial,nombre_centro_comercial,numero_local,entidad,municipio,localidad,ageb,telefono,email,web,tipo_unidad_economica,fecha_alta,id,codigo_actividad_economica,numero_ext,numero_int,codigo_postal,clave_entidad,clave_municipio,clave_localidad,manzana,latitud,longitud
antigua hotel,operadora hotelera puma sa de cv,hoteles sin otros servicios integrados,0 a 5 personas,avenida,miguel hidalgo,avenida,guillermo prieto,boulevard,isidro fabela,calle,mariano escobedo,,,,,colonia,san sebastian,,,,mexico                      ,toluca,toluca de lerdo,0468,,,,fijo,2011-03,6354974,721112,1004.0,,50090.0,15,106,1,21,19.28996959,-99.64111567
aruba hotel y villas sa de cv,aruba hotel y villas sa de cv,hoteles con otros servicios integrados,6 a 10 personas,boulevard,ojo de agua,prolongacion,los arcos,calle,francisco villa,otro (especifique),camino de terraceria,,,,,colonia,san francisco cuautliquixca,,,,mexico                      ,tecamac,ojo de agua,097a,5559326262,arubahotelyvillas@yahoo.com.mx,www.arubahotelyvillas.com.com,fijo,2013-07,6265761,721111,39.0,,55770.0,15,81,19,1,19.66613879,-99.0152084
as gran hotel,operadora hotelera puma sa de cv,hoteles sin otros servicios integrados,0 a 5 personas,avenida,paseo tollocan,,ninguno,calle,nezahualcoyotl,boulevard,isidro fabela,,,,,colonia,san sebastian,,,,mexico                      ,toluca,toluca de lerdo,0468,,,,fijo,2010-07,6356310,721112,611.0,,50130.0,15,106,1,43,19.28336722,-99.64067297
auto hotel cadillac,,hoteles sin otros servicios integrados,0 a 5 personas,,ninguno,calle,tierra y libertad,calle,benito juarez,,ninguno,sn,,,,colonia,"la remolacha, santa cruz atizapan",,,,mexico                      ,san antonio la isla,colonia la remolacha,0037,,,,fijo,2010-07,6266391,721112,,,52506.0,15,73,17,1,19.1860238,-99.52025962
auto hotel campestre,auto hotel campestre,hoteles sin otros servicios integrados,0 a 5 personas,calle,carretera chapultepec-tianguistenco,,ninguno,,ninguno,,ninguno,kilometro 6.,,,,rinconada,san bartolo,,,,mexico                      ,calimaya,rancho vistahermosa (rancho los jardines),0088,,,,fijo,2014-12,6266390,721112,,,52223.0,15,18,15,800,19.19311,-99.53793
auto hotel el arco,,hoteles sin otros servicios integrados,0 a 5 personas,,ninguno,,ninguno,,ninguno,,ninguno,,,,,prolongacion,manzana segunda de santa cruz tepexpan,,,,mexico                      ,jiquipilco,manzana segunda de santa cruz tepexpan,0126,,,,fijo,2014-12,6266426,721112,,,50830.0,15,47,95,14,19.58213197,-99.6948599
auto hotel las delicias,,hoteles sin otros servicios integrados,0 a 5 personas,calle,toluca-tenango,,ninguno,calle,francisco villa,,ninguno,kilometro 9,,,,colonia,la estacion,,,,mexico                      ,mexicaltzingo,san mateo mexicaltzingo,0043,,,,fijo,2010-07,6355160,721112,,,52187.0,15,55,1,16,19.21733772,-99.59093298
auto hotel los arcos,,hoteles sin otros servicios integrados,0 a 5 personas,prolongacion,vicente guerrero,prolongacion,benito juarez,calle,san bartolo,carretera,toluca-tenango,,,,,colonia,san lorenzo coacalco,,,,mexico                      ,metepec,san lorenzo coacalco (san lorenzo),0756,,,,fijo,2014-12,6266389,721112,3.0,,52140.0,15,54,41,12,19.24067683,-99.60213298
auto hotel los encinos,hotelera los encinos sa de cv,hoteles sin otros servicios integrados,6 a 10 personas,avenida,del penon,avenida,tecatl 1,calle,tecatl 2,calle,luis donaldo colosio murrieta,sn,,,,barrio,san pablo,,,,mexico                      ,chimalhuacan,chimalhuacan,0145,,,,fijo,2016-01,6507332,721112,,,53334.0,15,31,1,14,19.43115329,-98.95140994
auto hotel villamiro,inmobiliaria xeral sa de cv,hoteles con otros servicios integrados,11 a 30 personas,carretera,toluca-mexico,cerrada,ninguno,calle,calvario,calle,hermenegildo galeana,km,,,,colonia,la merced,,,,mexico                      ,lerma,lerma de villada,0256,7282821451,hotel_villamiro@hotmail.com,www.hotelvillamiro.com,fijo,2010-07,6266845,721111,49.0,,52000.0,15,51,1,22,19.28001606,-99.50577018
autohotel paraiso diamante,,hoteles con otros servicios integrados,0 a 5 personas,calle,carretera atlacomulco sann felipe del progreso,calle,ninguno,privada,ninguno,otro (especifique),ninguno,sn,,,,pueblo,el tunal nenaxi,,,,mexico                      ,san felipe del progreso,ejido del tunal nenaxi,0195,7121817371,,,fijo,2016-01,6507437,721111,,,50640.0,15,74,126,4,19.74395833,-99.90885814
ayotla sa,ayotla sa,hoteles sin otros servicios integrados,6 a 10 personas,avenida,cuauhtemoc,avenida,ignacio allende,calle,empedradillo,calle,zacatecas,,,,,colonia,ayotla centro,,,,mexico                      ,ixtapaluca,ixtapaluca,1048,,,,fijo,2010-07,6265576,721112,37.0,,56660.0,15,39,1,40,19.313859,-98.928239
best western gran marques,hotel gran marques sa de cv,hoteles con otros servicios integrados,11 a 30 personas,avenida,baja velocidad,privada,ninguno,calle,calle de la industria,calle,5 de febrero,,,,,colonia,san jeronimo chicahualco,,,,mexico                      ,metepec,san jeronimo chicahualco,0972,7222168508,gerenciadeventas@bestwesterntoluca.mx,www.bestwesterhotelesandressort,fijo,2010-07,6266618,721111,1046.0,,52170.0,15,54,37,2,19.28647633,-99.58206197
biohotel,biohotel sa de cv,hoteles con otros servicios integrados,6 a 10 personas,calle,5 de mayo,calle,ninos heroes,calle,ninguno,calle,profirio diaz,,,,,barrio,del espiritu santo,,,,mexico                      ,metepec,metepec,0563,7225401416,reservaciones@biohotelmexico.com,www.biohotelmexico.com,fijo,2014-12,6266467,721111,109.0,,52140.0,15,54,1,2,19.25135457,-99.60444643
casa abierta,,hoteles con otros servicios integrados,0 a 5 personas,calle,calle del coliseo,calle,don nicolas bravo,calle,plaza independencia,calle,miguel hidalgo,,,,,colonia,centro,,,,mexico                      ,valle de bravo,valle de bravo,0066,7262625190,casabiertavalle@yahoo.com.mx,www.casabierta.com.mx,fijo,2010-07,6266603,721111,107.0,,51200.0,15,110,1,4,19.19280902,-100.13238637
casa de campo hotel holistic center,,hoteles sin otros servicios integrados,0 a 5 personas,,rio lerma,,rio bravo,calle,ignacio zaragoza,,ninguno,,,,,barrio,de santa maria,,,,mexico                      ,malinalco,malinalco,0060,,,,fijo,2010-07,6355121,721112,608.0,,52440.0,15,52,1,14,18.9450513,-99.49877276
casa de descanso del magisterio estatal sor juana ines de la cruz,sindicato de maestros al servicio del estado de mexico,hoteles con otros servicios integrados,11 a 30 personas,carretera,ninguno,,mexico-cuautla,,nispe,,nispe,sn,,,,colonia,nepantla de sor juana ines de,,,,mexico                      ,tepetlixpa,nepantla de sor juana ines de la cruz,008a,5979773159,ofms140113@gmail.com,www.smsem.org.mx,fijo,2014-12,6266791,721111,,,56890.0,15,94,2,8,18.98815402,-98.83364494
casa pixan,casa pixan sa de cv,hoteles con otros servicios integrados,0 a 5 personas,calle,la cruz,calle,agricultura,calle,ninguno,calle,ninguno,,,,,barrio,de santa maria,,,,mexico                      ,malinalco,malinalco,0060,7141470572,www.casapixan.com,wwwcasapixan.com,fijo,2010-07,6355120,721111,18.0,,52440.0,15,52,1,47,18.94475431,-99.48995764
centro vacacional ex hacienda los morales,,hoteles con otros servicios integrados,0 a 5 personas,calle,aldama,privada,quetzalcoatl,calle,ninguno,calle,camino viejo a chiconcuac,,,,sn,barrio,coxotla,,,,mexico                      ,papalotla,papalotla,0049,5585992359,hectorvidrio@yahoo.com,www.losmontero.com,fijo,2010-07,6265671,721111,11.0,,56050.0,15,69,1,3,19.55953647,-98.86363899
centro vacacional issemym tonatico,instituto de seguridad social del estado de mexico y municipios,hoteles con otros servicios integrados,31 a 50 personas,calle,licenciado adolfo lopez mateos,calle,cuauhtemoc,calle,abelardo rodriguez,calle,miguel hidalgo,,,,,barrio,santa maria norte,,,,mexico                      ,tonatico,tonatico,0041,017211410995,hoteles_issemym@yahoo.com.mx,,fijo,2010-07,6266293,721111,123.0,,51950.0,15,107,1,4,18.80812937,-99.67018083
centro vacacional issemym valle de bravo,instituto de seguridad social del estado de mexico y municipios,hoteles con otros servicios integrados,11 a 30 personas,calle,independencia,calle,ignacio zaragoza,calle,calle de las ortigas,calle,ortigas,,,,,colonia,centro,,,,mexico                      ,valle de bravo,valle de bravo,0066,7222138350,hoteles_issemum@yahoo.com.mx,,fijo,2010-07,6266237,721111,404.0,,51200.0,15,110,1,15,19.19476326,-100.13439848
centro vacacional ixtamil,sindicato de maestros al servicio del estado de mexico,hoteles con otros servicios integrados,51 a 100 personas,carretera,carretera libre federal itapan de la sal-tonatico km 2.0,,ninguno,prolongacion,jose maria morelos y pavon,prolongacion,ignacio allende,sn,,,,pueblo,el salitre,,,,mexico                      ,ixtapan de la sal,ixtapan de la sal,0093,7211410533,ofms140113@gmail.com,www.smsem.org.mx,fijo,2014-12,6266119,721111,,,51900.0,15,40,1,7,18.82620732,-99.66839103
city express junior toluca,promotora plaza sol sa de cv,hoteles sin otros servicios integrados,6 a 10 personas,boulevard,aeropuerto miguel aleman,boulevard,real a san pedro,calle,hacienda santa rosa,avenida,emiliano zapata antiguo camino al cerrillo,sn,,,,colonia,parque industrial polaris,,,,mexico                      ,lerma,lerma de villada,0472,5552498050,ngonzalez@hotelescity.com,www.hotelescity.com,fijo,2010-07,6355628,721112,,,52000.0,15,51,1,1,19.30520664,-99.56019145
city express plus satelite,prados camelinas sa de cv,hoteles sin otros servicios integrados,11 a 30 personas,calle,manuel tolsa,,ninguno,calle,boulevard manuel avila camacho,circuito,arquitectos,,,,,colonia,ciudad satelite,,,,mexico                      ,naucalpan de juarez,naucalpan de juarez,1188,5516632660,cestl.front@cityexpress.com.mx,www.gosahoteles.com,fijo,2016-01,6705865,721112,1.0,,53100.0,15,57,1,27,19.51066125,-99.23666595
city express tepotzotlan,promotora plaza sol sa de cv,hoteles con otros servicios integrados,31 a 50 personas,autopista,mexico-queretaro,carretera,a teoloyucan,carretera,a teoloyucan,,ninguno,sn,,,,barrio,texcacoa,,,,mexico                      ,tepotzotlan,tepotzotlan,041a,5552498050,ngonzalez@hotelescity.com,www.hotelcity.com,fijo,2010-07,6353807,721111,,,54600.0,15,95,1,5,19.7102121,-99.20638267
city express toluca,promotora plaza sol sa de cv,hoteles con otros servicios integrados,251 y mas personas,boulevard,miguel aleman (aeropuerto),,ninguno,,ninguno,,ninguno,,,,,colonia,lerma,,,,mexico                      ,lerma,lerma de villada,0472,,,www.cityexpress.com,fijo,2019-04,6869145,721111,55.0,,52000.0,15,51,1,3,19.29144036,-99.55672141
city plus mundo e,promotora plaza sol sa de cv,hoteles con otros servicios integrados,31 a 50 personas,boulevard,manuel avila camacho,,,,,,,,,,,colonia,san lucas,,,,mexico                      ,tlalnepantla de baz,tlalnepantla,0533,5552498050,,www.hotelescity.com,fijo,2019-04,6874962,721111,1007.0,,54050.0,15,104,1,3,19.52782339,-99.22814162
club deportivo hotel y motel el tucan,,hoteles con otros servicios integrados,6 a 10 personas,calle,carretera otumba-ciudad sahagun km 10,calle,barranquillas,calle,antiguo a tepeapulco,calle,fray bernardino de sahagun,sn,,,sn,colonia,el ranchito,,,,mexico                      ,otumba,otumba de gomez farias,0105,015929220305,clubdeportivoeltucan@gmail.com,www.clubeltucan.com,fijo,2010-07,6265723,721111,,,55900.0,15,65,1,1,19.70563821,-98.74932642
comercializadora mdc sa de cv,comercializadora mdc sa de cv,hoteles sin otros servicios integrados,11 a 30 personas,calle,santos degollado,calle,sor juana ines de la cruz,calle,jose maria pino suarez,calle,gomez pedraza,,,,,colonia,zopilocalco,,,,mexico                      ,toluca,toluca de lerdo,0383,,,,fijo,2010-07,6266257,721112,303.0,,50090.0,15,106,1,10,19.29401505,-99.65134239
courtyard marriott aeropuerto,operadora el gran hotel sa de cv,hoteles con otros servicios integrados,11 a 30 personas,boulevard,aeropuerto miguel aleman,boulevard,benito juarez,calle,ninguno,calle,ninguno,,,,,colonia,san pedro totoltepec,,,,mexico                      ,san mateo atenco,san mateo atenco,0414,7225408424,eduardosandoval@courtyard.com,www.hotelesmarriottinternacional.com,fijo,2010-07,6266359,721111,177.0,,50200.0,15,76,1,7,19.29997003,-99.55941984
danzaluna,danzaluna sa de cv,hoteles con otros servicios integrados,6 a 10 personas,calle,cerro de la bolita,calle,san juan,privada,cerro de la bolita,calle,fray gregorio jimenez de la cuenca,,,,,barrio,la capilla,,,,mexico                      ,valle de bravo,valle de bravo,0066,7262621057,reservaciones@danzaluna.com,www.danzaluna.com,fijo,2010-07,2478783,721111,80.0,,51200.0,15,110,1,16,19.19338197,-100.13638197
danzaluna,danzaluna sa de cv,hoteles sin otros servicios integrados,6 a 10 personas,,san juan,,fray gregorio jimenez de la cuenca,calle,atardecer,,ortigas,,,,,colonia,cerro de la bolita,,,1,mexico                      ,valle de bravo,valle de bravo,0066,,,,fijo,2014-12,6355748,721112,80.0,,51200.0,15,110,1,24,19.1934249,-100.13580914
el porton inn,,hoteles sin otros servicios integrados,0 a 5 personas,calle,tenancingo-teneria-malinalco,,ninguno,,ninguno,,ninguno,kilometro 3.5,,,,colonia,colonia emiliano zapata,,,,mexico                      ,tenancingo,ejido de teneria (el llano),010a,,,,fijo,2010-07,6355163,721112,,,52433.0,15,88,10,7,18.95425,-99.55748
el roble de noe,,hoteles sin otros servicios integrados,0 a 5 personas,calle,alfredo del mazo,calle,veinte de noviembre,calle,vereda,calle,aztecas,sn,,,,colonia,centro,,,,mexico                      ,villa del carbon,villa del carbon,0179,,,,fijo,2010-07,6266529,721112,,,54300.0,15,112,1,38,19.72110695,-99.45964628
el santuario,conciencia y excelencia sa de cv,hoteles con otros servicios integrados,51 a 100 personas,carretera,valle de bravo - colorines,calle,ninguno,calle,ninguno,otro (especifique),ninguno,km,,,,pueblo,san gaspar,,,,mexico                      ,valle de bravo,el santuario,0136,7262629100,tesoreria@elsantuario.com,elsantuario.com,fijo,2014-12,6354951,721111,4.0,,51200.0,15,110,121,2,19.22776243,-100.15730715
esip arrendamiento,,hoteles con otros servicios integrados,0 a 5 personas,boulevard,volcanes,calle,plateros,cerrada,ninguno,calle,moneda,,,,,fraccionamiento,centropopo-park,,,,mexico                      ,atlautla,popo park,0090,5979768273,esip.arrendamiento@gmail.com,www.esiparendamiento.com,fijo,2014-12,6420347,721111,1.0,,56983.0,15,15,4,33,19.0625406,-98.78323852
fi ecatepec,posadas de latinoamerica sa de cv,hoteles con otros servicios integrados,51 a 100 personas,avenida,central,,ninguno,,ninguno,calle,paseo de las americas,manzana 4 lote 1,,,,coto,urbano las americas,"tianguis, bazares o pulgas",plaza las americas,sn,mexico                      ,ecatepec de morelos,ecatepec de morelos,4941,,,,fijo,2010-07,6348644,721111,,,55070.0,15,33,1,5,19.5829189,-99.02506875
fiesa inn tlalnepantla,hoteles y villas posadas sa de cv,hoteles con otros servicios integrados,0 a 5 personas,avenida,sor juan ines cruz,,,,,,,,,,,colonia,tlalnepantla,,,,mexico                      ,tlalnepantla de baz,tlalnepantla,0393,015553266701,veronica.arevalo@posadas.com,,fijo,2017-11,6813972,721111,22.0,,54000.0,15,104,1,5,19.53890018,-99.20012349
fiesta americana toreo,hoteles y villas posadas sa de cv,hoteles con otros servicios integrados,101 a 250 personas,avenida,manuel avila camacho,,,,,,,,,,,colonia,lomas de sotelo,,,,mexico                      ,naucalpan de juarez,naucalpan de juarez,2504,015553266701,veronica.arevalo@posadas.com,,fijo,2017-11,6812938,721111,5.0,,53390.0,15,57,1,1,19.4534666,-99.22178868
fiesta inn,posadas de latinoamerica sa de cv,hoteles con otros servicios integrados,51 a 100 personas,carretera,mexico-queretaro,calle,mexico-queretaro,avenida,chalma,avenida,paseo de las haciendas,sn,,,,colonia,jardines de la hacienda,"tianguis, bazar o pulga",plaza san marcos,sn,mexico                      ,cuautitlan izcalli,cuautitlan izcalli,0178,018005045050,,www.fiestainn.com,fijo,2010-07,6348643,721111,,0.0,54720.0,15,121,1,43,19.67128082,-99.20050335
fiesta inn cuautitlan,grupo posadas sab de cv,hoteles con otros servicios integrados,51 a 100 personas,avenida,paseo de las haciendas,avenida,chalma,calle,ninguno,calle,mexico-queretaro,sn,,,,colonia,jardines de la hacienda,centro o plaza comercial,plaza san marcos,sn,mexico                      ,cuautitlan izcalli,cuautitlan izcalli,0178,014433108137,,,fijo,2010-07,6349212,721111,,0.0,54720.0,15,121,1,43,19.67230707,-99.20497631
fiesta inn cuautitlan,hoteles y villas posadas sa de cv,hoteles con otros servicios integrados,51 a 100 personas,avenida,chalma,,,,,,,sn,,,,colonia,de la hacienda,,,,mexico                      ,cuautitlan izcalli,cuautitlan izcalli,0178,015553266701,veronica.arevalo@posadas.com,,fijo,2017-11,6812939,721111,,,54720.0,15,121,1,43,19.67149796,-99.2006856
fiesta inn ecatepec,hoteles y villas posadas sa de cv,hoteles con otros servicios integrados,0 a 5 personas,avenida,1 de mayo,,,,,,,sn,,,,colonia,las americas,,,,mexico                      ,ecatepec de morelos,ecatepec de morelos,4941,015553266701,veronica.arealo@posadas.com,,fijo,2017-11,6813632,721111,,,55070.0,15,33,1,5,19.58288512,-99.02505574
fiesta inn naucalpan,fideicomiso f/1596 ,hoteles con otros servicios integrados,11 a 30 personas,calle,via gustavo baz,calle,via doctor gustavo baz,,calzada de la naranja,,9,,,,,hacienda,industrial alce blanco,,,,mexico                      ,naucalpan de juarez,naucalpan de juarez,139a,5553879910,,www.fibrahotel.com,fijo,2010-07,6354978,721111,174.0,,53370.0,15,57,1,10,19.47923888,-99.23067937
fiesta inn perinorte,fideicomiso f/1596 ,hoteles con otros servicios integrados,51 a 100 personas,carretera,carretera mexico queretaro,privada,calzada miguel hidalgo,carretera,ninguno,calle,mexico (cuautitlan),km,,,sn,colonia,lecheria,,fiesta inn perinorte,sn,mexico                      ,cuautitlan izcalli,cuautitlan izcalli,1886,015558994500,,www.fibrahotel.com,fijo,2010-07,6348645,721111,3.0,,54900.0,15,121,1,40,19.60500305,-99.18911988
fiesta inn perinorte,hoteles y villas posadas sa de cv,hoteles con otros servicios integrados,0 a 5 personas,carretera,mexico-queretaro,,,,,,,sn,,,,colonia,tultilan,,,,mexico                      ,tultitlan,buenavista,1769,015553266701,veronica.arevalo@posadas.com,,fijo,2017-11,6813999,721111,,,54900.0,15,109,3,7,19.60879972,-99.18966413
gaudi suites vip,hotelera couto sa de cv,hoteles con otros servicios integrados,11 a 30 personas,avenida,ignacio comonfort,calle,jose maria pino suarez,privada,ninguno,calle,privada de pino suarez,,,,,colonia,santa ana tlapaltitlan,,,,mexico                      ,toluca,santa ana tlapaltitlan,4259,7221997412,gaudsuitesvip@hotmail.com,,fijo,2010-07,6355100,721111,405.0,,50160.0,15,106,86,11,19.28616061,-99.61017476
gran hotel plaza imperial,inmobiliaria mexicana turistica sa de cv,hoteles con otros servicios integrados,31 a 50 personas,carretera,toluca-mexico km 57.5,calle,5 de febrero,calle,prolongacion adolfo lopez mateos,calle,puerto de acapulco,sn,,,,colonia,san jeronimo chicahualco,,,,mexico                      ,metepec,san jeronimo chicahualco,0972,72227544444,www.plazamperial.com,www.plazamperial.cm,fijo,2010-07,6353720,721111,,,52170.0,15,54,37,3,19.28637308,-99.57787621
gran hotel real,grupo de modernizacion empresarial sa de cv,hoteles con otros servicios integrados,11 a 30 personas,avenida,licenciado benito juarez,calle,miguel carrera,calle,mariano galvan rivera,avenida,insurgentes,,,,,barrio,texcacoa,,,,mexico                      ,tepotzotlan,tepotzotlan,0208,5558669865,granhotelrealtepotzotlan@yahoo.com.mx,www.granhotelrealtepotzotlan.com.mx,fijo,2010-07,6266137,721111,35.0,,54605.0,15,95,1,2,19.71435474,-99.21800726
hacienda de la luz boutique & mountain park resort,hacienda de la luz boutique & mountain park resort sa de cv,hoteles con otros servicios integrados,31 a 50 personas,otro (especifique),terraceria a hacienda de la luz,otro (especifique),,otro (especifique),,otro (especifique),manzana 800,sn,,,,rancheria,el consuelo,,,,mexico                      ,san felipe del progreso,rancheria el consuelo (el carmen),0161,5552458848,direccion@haciendadelaluz.com.mx,www.haciendadelaluz.com.mx,fijo,2010-07,6266443,721111,,,50600.0,15,74,20,800,19.76170479,-100.0600486
hacienda la purisima,ultra servicios administrativos sa de cv,hoteles con otros servicios integrados,31 a 50 personas,otro (especifique),rancho la purisima,calle,ninguno,calle,ninguno,calle,ninguno,sn,,,,hacienda,hacienda la purisima,,,,mexico                      ,ixtlahuaca,fraccionamiento hacienda la purisima,0172,7122830028,olgaastudilloesquibel@gmail.com,www.haciendalapurisima.com,fijo,2014-12,6266422,721111,,,50789.0,15,42,74,15,19.55319783,-99.72318106
hacienda real san miguel ometusco,hacinda teotihuacan sa de cv,hoteles con otros servicios integrados,11 a 30 personas,calle,carretera san felipe teotitan xala,calle,16 de septiembre,calle,ninguno,calle,alvaro obregon,sn,,,sn,exhacienda,exhacienda san miguel ometusco,,,,mexico                      ,axapusco,san miguel ometusco,012a,5929247714,hdatofacturas@gmail.com,www.hotelsanmiguelometusco.com,fijo,2014-12,6265771,721111,,,55963.0,15,16,11,12,19.78108946,-98.67295452
holiday inn express and suites toluca zona aeropuerto,"deutsche bank mexico, sociedad anonima, institucion de banca multiple, division fiduciaria f/1616 ",hoteles con otros servicios integrados,31 a 50 personas,boulevard,miguel aleman (aeropuerto),privada,ninguno,calle,ninguno,autopista,ninguno,,,,,colonia,parque industrial,,,,mexico                      ,lerma,lerma de villada,0472,7222655100,ibeth.cela@hotelesprisma.com,,fijo,2011-03,6355166,721111,55.0,,52000.0,15,51,1,3,19.29239339,-99.55693138
holiday inn express galerias metepec,operadora hotelera city center metepec sa de cv,hoteles con otros servicios integrados,31 a 50 personas,calle,toluca-metepec,calle,pedro ascencio,calle,uruapan,calle,guadalupe victoria,,,,,colonia,la michoacana,,,14,mexico                      ,metepec,san jorge pueblo nuevo,1097,7222359595,administracion@hiexmetepec.com.mx,,fijo,2016-01,6713075,721111,267.0,,52166.0,15,54,38,10,19.25453807,-99.61970793
holiday inn perinorte,operadora de hoteles y servicios turisticos sea sa de cv,hoteles con otros servicios integrados,51 a 100 personas,avenida,ninguno,calle,melchor ocampo,calle,antiguo camino a minas,avenida,via gustavo baz,,,,,colonia,san pedro barrientos,,,,mexico                      ,tlalnepantla de baz,tlalnepantla,0016,015553215191,recursos.humanos@hiperinorte.com.mx,www.ihg.com,fijo,2010-07,6348130,721111,4873.0,,54010.0,15,104,1,33,19.58212492,-99.2032884
hospedaje diamante,,hoteles sin otros servicios integrados,0 a 5 personas,calle,nuestra senora de los remedios,calle,solidaridad (tejones),calle,nuestra senora de san juan,calle,nuestra senora de lourdes,sn,,,,colonia,tres marias,,,,mexico                      ,chalco,chalco de diaz covarrubias,2040,,,,fijo,2010-07,6265514,721112,,,56600.0,15,25,1,23,19.274989399999995,-98.90648575
hospedaje el convento,,hoteles sin otros servicios integrados,0 a 5 personas,calle,a toluca,,ninguno,,ninguno,vereda,al panteon,sn,,,,colonia,el calvario,,,,mexico                      ,sultepec,sultepec de pedro ascencio de alquisiras,0169,,,,fijo,2010-07,6355602,721112,,,51600.0,15,80,1,24,18.86236561,-99.96743391
hospedaje la hacienda de la flor,,hoteles con otros servicios integrados,0 a 5 personas,calle,durango,calle,benito juarez,calle,vergel,calle,16 de septiembre,sn,,,,colonia,centro,,,,mexico                      ,valle de bravo,valle de bravo,0066,7262626660,,,fijo,2010-07,6266763,721111,6.0,,51200.0,15,110,1,20,19.19724664,-100.1315871
hospedaje mi hotelito,,hoteles sin otros servicios integrados,0 a 5 personas,calle,xochiquetzal,calle,aztecas,calle,toltecas,calle,huehuecoyotl,sn,,,,colonia,culturas de mexico,,,,mexico                      ,chalco,chalco de diaz covarrubias,0788,,,,fijo,2010-07,6265577,721112,,,56600.0,15,25,1,25,19.26452979,-98.90403495
hospedaje san jose,,hoteles sin otros servicios integrados,0 a 5 personas,calle,sur 12,avenida,san agustin,cerrada,primera sur 10 y 16,calle,sur 14,mz 17 lote 16,,,,colonia,nuevo paseo de san agustin,,,,mexico                      ,ecatepec de morelos,ecatepec de morelos,0741,015557900819,trozinoborrego@outlook.com,,fijo,2010-07,6265817,721112,33.0,,55130.0,15,33,1,13,19.52854972,-99.04794999
hotel,,hoteles sin otros servicios integrados,0 a 5 personas,calle,del panteon poniente,calle,de los serrano,calzada,del panteon,calle,carlos salinas de gortari,sn,,,,barrio,la magdalena,,,,mexico                      ,san mateo atenco,san mateo atenco,0363,,,,fijo,2014-12,2452041,721112,,,52100.0,15,76,1,1,19.2677802,-99.54499328
hotel & urbane,hospedajes rosique sa de cv,hoteles sin otros servicios integrados,11 a 30 personas,calle,tultepec-coacalco,calle,mexiquense,,ninguno,,maestro jesus silva herzog,,,,,colonia,san francisco coacalco,,,,mexico                      ,coacalco de berriozabal,san francisco coacalco,0137,5521596309,hospedajesrosique@gmail.com,,fijo,2016-10,6760643,721112,28.0,,55712.0,15,20,1,2,19.64154125,-99.11450839
hotel & villas monarca,,hoteles sin otros servicios integrados,6 a 10 personas,otro (especifique),vial jorge jimenez cantu,continuacion,ingeniero luis galindo ruiz,calle,jose martin,calle,jose maria coss,,,,,colonia,isidro fabela,,,,mexico                      ,atlacomulco,atlacomulco de fabela,013a,7121204310,fanysa73@yahoo.com.mx,,fijo,2010-07,6355282,721112,106.0,,50450.0,15,14,1,5,19.78809783,-99.87640704
hotel 5 palomas,,hoteles sin otros servicios integrados,0 a 5 personas,avenida,alfredo del mazo velez,avenida,lic felipe de jesus chaparro,calle,ignacio rayon,avenida,licenciado felipe de jesus chaparro,sn,,,,colonia,centro,,,,mexico                      ,temascalcingo,temascalcingo de jose maria velasco,0273,,,,fijo,2014-12,2459799,721112,,,50400.0,15,85,1,10,19.91159102,-100.00840141
hotel abcentral,operadora abcentral sa de cv,hoteles sin otros servicios integrados,11 a 30 personas,calle,luis e. alvarez,calle,jose maria morelos y pavon,calle,manuel avila camacho,calle,emiliano zapata,,,,,colonia,melchor muzquiz,,,,mexico                      ,ecatepec de morelos,ecatepec de morelos,0934,,,,fijo,2014-12,2286597,721112,34.0,,55240.0,15,33,1,13,19.50875013,-99.03808557
hotel ac,,hoteles sin otros servicios integrados,0 a 5 personas,calle,manuel negrete,,ninguno,calle,nicolas bravo,calle,guillermo prieto,,,,,barrio,san agustin,,,,mexico                      ,xalatlaco,xalatlaco,0061,,,,fijo,2010-07,6266496,721112,60.0,,52680.0,15,43,1,13,19.17647922,-99.42082275
hotel acambay,,hoteles sin otros servicios integrados,6 a 10 personas,calle,16 de septiembre,,ninguno,,ninguno,,ninguno,sn,,,,colonia,centro,,,,mexico                      ,acambay de ruiz castaneda,villa de acambay de ruiz castaneda,0324,,,,fijo,2010-07,6266517,721112,,,50360.0,15,1,1,2,19.94738912,-99.84378749
hotel aculco,,hoteles sin otros servicios integrados,0 a 5 personas,avenida,morelos,avenida,primera de matamoros,calle,del sol,calle,galeana,,,,,colonia,centro,,,,mexico                      ,aculco,aculco de espinoza,0117,,,,fijo,2010-07,6266694,721112,12.0,,50360.0,15,3,1,16,20.0999188,-99.82458716
hotel aeropuerto,inmobiliaria hangares sa de cv,hoteles con otros servicios integrados,11 a 30 personas,calle,prolongacion miguel aleman,calle,toluca-naucalpan,privada,ninguno,calle,ninguno,,,,,colonia,san pedro totoltepec,,,,mexico                      ,toluca,san jose guadalupe otzacatipan,2178,01722170011,contaelba@hotmail.com,,fijo,2010-07,6357063,721111,300.0,,50200.0,15,106,72,73,19.34750842,-99.58994202
hotel alameda,,hoteles sin otros servicios integrados,0 a 5 personas,calle,ezequiel ordonez,calle,andres quintana roo,calle,21 de marzo,avenida,sebastian lerdo de tejada,,,,,colonia,la merced alameda,,,,mexico                      ,toluca,toluca de lerdo,0453,,,,fijo,2010-07,6266738,721112,104.0,,50080.0,15,106,1,39,19.2910858,-99.66201877
hotel albert,,hoteles sin otros servicios integrados,6 a 10 personas,calle,ignacio lopez rayon,calle,primero de mayo,avenida,de la independencia,calle,16 de septiembre,,,,,colonia,santa clara,,,,mexico                      ,toluca,toluca de lerdo,0453,,,,fijo,2010-07,6266741,721112,213.0,,50060.0,15,106,1,8,19.29183293,-99.65296692
hotel alpez,,hoteles sin otros servicios integrados,6 a 10 personas,calle,pedro ascencio,calle,aquiles serdan,calle,nigromante,calle,5 de febrero,,,,,colonia,la merced,,,,mexico                      ,toluca,toluca de lerdo,0453,,,,fijo,2010-07,6356071,721112,200.0,,50080.0,15,106,1,28,19.29115269,-99.65983329
hotel america,ocastelo sa de cv,hoteles sin otros servicios integrados,6 a 10 personas,avenida,hidalgo,calle,aldama,calle,ignacio allende,calle,revolucion,,,,,colonia,tlalnepantla centro,,,,mexico                      ,tlalnepantla de baz,tlalnepantla,0406,015571589238,,,fijo,2017-11,6800313,721112,11.0,,54068.0,15,104,1,6,19.53986493,-99.19462187
hotel and suites verona,operadora venus sa de cv,hoteles con otros servicios integrados,11 a 30 personas,calle,licenciado juan fernandez albarran,calle,vallejo,calle,2-a,calle,vaso regulador carretas,,,,,colonia,industrial san pablo xalpa,,,,mexico                      ,tlalnepantla de baz,tlalnepantla,1052,,,,fijo,2010-07,6348112,721111,7.0,,54090.0,15,104,1,21,19.51680866,-99.16302346
hotel antigua posada de luvianos,,hoteles sin otros servicios integrados,0 a 5 personas,calle,miguel hidalgo,calle,independencia,,ninguno,avenida,pichardo pagaza,sn,,,,colonia,centro,,,,mexico                      ,luvianos,villa luvianos,005a,,,,fijo,2010-07,6355745,721112,,,51440.0,15,123,1,5,18.92098783,-100.29834374
hotel apaxco,,hoteles sin otros servicios integrados,0 a 5 personas,calle,labradores,calle,libertad,calle,avenida juarez,calle,la palma,,,,,aeropuerto,centro,,,,mexico                      ,apaxco,apaxco de ocampo,0198,,,,fijo,2010-07,6266716,721112,74.0,,55660.0,15,10,1,8,19.98015903,-99.17590314
hotel aquarius,hotel aquarius sa de cv,hoteles con otros servicios integrados,6 a 10 personas,calle,carretera mexico-puebla km 27,calle,norte 23,calle,norte 24,calle,oriente 15,,,,,colonia,san isidro,,,,mexico                      ,valle de chalco solidaridad,xico,0442,5559715699,,,fijo,2014-12,2365479,721111,1.0,,56617.0,15,122,1,25,19.29663945,-98.92692413
hotel atenco sa de cv,hotel atenco sa de cv,hoteles sin otros servicios integrados,11 a 30 personas,avenida,de los maestros,avenida,principal,calle,del trabajo,avenida,del trabajo,,,,,colonia,san andres atenco,,,,mexico                      ,tlalnepantla de baz,tlalnepantla,1809,,,,fijo,2010-07,6355119,721112,8.0,,54040.0,15,104,1,13,19.54075523,-99.21775171
hotel atizapan,restaurante bar ibiza sa de cv,hoteles con otros servicios integrados,31 a 50 personas,calle,avenida juarez,privada,manuel yanez velazquez,calle,porfirio diaz,calle,porfirio diaz,,pb,planta baja,,colonia,atizapan centro,,atizapan centro,sn,mexico                      ,atizapan de zaragoza,ciudad lopez mateos,0895,5558222060,hotelatizapan@gmail.com,,fijo,2010-07,6355519,721111,54.0,,52910.0,15,13,1,20,19.55837224,-99.2447121
hotel aurora,hotelera villada sa de cv,hoteles sin otros servicios integrados,11 a 30 personas,avenida,vicente villada,avenida,cuarta avenida (rayito de sol),avenida,doctor gustavo baz,calle,rosas de mayo,,,,,colonia,benito juarez,,,,mexico                      ,nezahualcoyotl,ciudad nezahualcoyotl,0524,,,,fijo,2010-07,6349641,721112,704.0,,57000.0,15,58,1,35,19.4082553,-99.00314498
hotel avandaro golf y spa resort,avandaro operaciones turisticas sa de cv,hoteles con otros servicios integrados,101 a 250 personas,calle,vega del rio,avenida,avenida de las vegas,privada,v. del heno,calle,v. circular,sn,,,,hacienda,avandaro,,,,mexico                      ,valle de bravo,valle de bravo,0189,7262660366,acolin@hotelavandaro.com.mx,www.hotelavandaro.com.mx,fijo,2010-07,6266343,721111,,,51200.0,15,110,1,2,19.16179852,-100.13289576
hotel avenida,,hoteles con otros servicios integrados,0 a 5 personas,calle,constitucion,calle,miguel hidalgo,avenida,benito juarez,calle,aldama,,,,,barrio,san gaspar,,,,mexico                      ,ixtapan de la sal,ixtapan de la sal,0106,017211430039,hcasablancaixtapan@hotmail.com,,fijo,2010-07,6354078,721111,614.0,,51900.0,15,40,1,5,18.84829356,-99.67874325
hotel avia inn,promociones ecatepec sa de cv,hoteles con otros servicios integrados,6 a 10 personas,calle,via jose maria morelos,calle,callejon del beso,privada,ninguno,calle,callejon del beso,,,,,colonia,hogares mexicanos,,,,mexico                      ,ecatepec de morelos,ecatepec de morelos,0101,015557701418,hotelavia@hotmail.com,,fijo,2010-07,6265311,721111,36.0,,55030.0,15,33,1,44,19.59716108,-99.03658567
hotel azteca plaza,promociones romay sa de cv,hoteles con otros servicios integrados,11 a 30 personas,avenida,avenida central,calle,solidaridad,calle,europa,calle,lazaro cardenas,,,,,colonia,industrias tulpetlac,,,,mexico                      ,ecatepec de morelos,ecatepec de morelos,2061,015557754144,arturoherrera@pedrozamelendez.com,www.hotelaztecaplaza.com,fijo,2010-07,6265317,721111,100.0,,55107.0,15,33,1,53,19.55600432,-99.01816179
hotel balneario pueblo bonito,,hoteles sin otros servicios integrados,0 a 5 personas,terraceria,luis donaldo colosio,,nicolas romero-jilotzingoent. km 56.6 (ixtlahuaca-naucalpan),,ninguno,,panoramica oriente,domicilio conocido,,,,ampliacion,ampliacion ejido la palma,,,,mexico                      ,isidro fabela,ampliacion ejido palma (chinguiriteras),0057,,,,fijo,2016-01,6507386,721112,,,54485.0,15,38,10,800,19.57946,-99.37752
hotel balneario tonatico,h ayuntamiento de tonatico,hoteles sin otros servicios integrados,6 a 10 personas,,ninguno,calle,morelos,calle,villa,calle,camino real,,,,,barrio,santa maria norte,,,,mexico                      ,tonatico,tonatico,0041,,,,fijo,2010-07,6266665,721112,,,51950.0,15,107,1,20,18.81508563,-99.66807688
hotel beethoven,,hoteles sin otros servicios integrados,0 a 5 personas,calle,toluca-valle,calle,villa florencia,privada,de san fernando (cerrada de san antonio),calle,villa florencia,,,,,colonia,colonia rinconada san antonio,,,,mexico                      ,valle de bravo,valle de bravo,0193,,,,fijo,2010-07,6266679,721112,63.0,,51200.0,15,110,1,22,19.20913825,-100.13806049
hotel belisana,,hoteles con otros servicios integrados,11 a 30 personas,calle,benito juarez,calle,eva samano de lopez mateos,privada,ecologia,calle,adolfo lopez mateos,,,,,barrio,san gaspar,,,,mexico                      ,ixtapan de la sal,ixtapan de la sal,0036,7211430040,belisanahotel12@hotmail.com,,fijo,2010-07,6357050,721111,64.0,,51900.0,15,40,1,21,18.85005565,-99.67867246
hotel best western toluca,,hoteles con otros servicios integrados,11 a 30 personas,boulevard,paseo presidente adolfo lopez mateos,calle,emiliano zapata,calle,morelos,calle,lopez mateos,,,,,colonia,san luis mextepec,,,,mexico                      ,zinacantepec,san luis mextepec,0789,017222181856,recepcionwtoluca@western.com,,fijo,2010-07,6355792,721111,406.0,,51355.0,15,118,60,17,19.29439031,-99.72642667
hotel bicentenario,,hoteles sin otros servicios integrados,0 a 5 personas,,avenida michoacan,,ninguno,,ninguno,,ninguno,sn,,,,rinconada,san mateo texcalyacac,,,,mexico                      ,texcalyacac,rancho los gavilanes,0036,,,,fijo,2014-12,6266393,721112,,,52570.0,15,98,8,800,19.12757638,-99.50797045
hotel bonampak,,hoteles sin otros servicios integrados,6 a 10 personas,calle,reforma,calle,san francisco,calle,nuevo mexico,calle,san francisco,sn,,,,colonia,centro,,,,mexico                      ,amecameca,amecameca de juarez,0036,,,,fijo,2010-07,6265668,721112,,,56900.0,15,9,1,26,19.13027852,-98.76801587
hotel boppard,"boppard, s. de r.l. de c.v.",hoteles sin otros servicios integrados,6 a 10 personas,avenida,adolfo lopez mateos (av. r-1),calle,carril 1 avenida oaxaca,calle,carril 1 avenida guelatao,calle,cedro,sn,,,,colonia,santa maria tulpetlac,,,,mexico                      ,ecatepec de morelos,ecatepec de morelos,2273,015515620230,hotelboppart@gmail.com,,fijo,2016-01,6710134,721112,,,55400.0,15,33,1,48,19.5617329,-99.02089951
hotel boulevard,,hoteles sin otros servicios integrados,0 a 5 personas,boulevard,gustavo baz prada,boulevard,nicolas bravo,calle,francisco medrano,calle,valentin gomez farias,sn,,,,colonia,ixtlahiaca,,,,mexico                      ,ixtlahuaca,ixtlahuaca de rayon,0312,,,,fijo,2010-07,6266572,721112,,,50740.0,15,42,1,2,19.56448979,-99.76430559
hotel buenavista,,hoteles sin otros servicios integrados,0 a 5 personas,calle,buenavista,calle,miguel hidalgo,,ninguno,,ninguno,,,,,colonia,lindavista,,,,mexico                      ,luvianos,villa luvianos,005a,,,,fijo,2010-07,6266673,721112,,,51440.0,15,123,1,19,18.92186953,-100.29012828
hotel buenos aires,,hoteles sin otros servicios integrados,0 a 5 personas,calle,vereda,calle,ejido sur,calle,buenos aires,,ninguno,,,,,barrio,san pablito chiconcuac,,,,mexico                      ,chiconcuac,chiconcuac de juarez,0044,,,,fijo,2014-12,6265792,721112,3.0,,56270.0,15,30,1,65,19.55868349,-98.90072206
hotel bugambilias,hotel bugambilias,hoteles sin otros servicios integrados,0 a 5 personas,calle,alberto garduno,calle,la paz,calle,mariposa monarca,carretera,nicolas bravo,sn,,,,colonia,la teneria,,,,mexico                      ,san felipe del progreso,san felipe del progreso,0142,,,,fijo,2014-12,2463497,721112,,,50640.0,15,74,1,38,19.71084054,-99.94335075
hotel bugambilias,,hoteles sin otros servicios integrados,0 a 5 personas,calle,primavera,calle,barrancas,calle,federal mexico-pachuca,cerrada,del prado,sn,,,,colonia,santa maria ajoloapan,,,,mexico                      ,tecamac,santa maria ajoloapan,0626,,,,fijo,2014-12,2262926,721112,,,55744.0,15,81,12,31,19.76970475,-98.9706508
hotel bugambilias,,hoteles sin otros servicios integrados,6 a 10 personas,calle,16 de septiembre,calle,ignacio zaragoza,calle,benito juarez,calle,porfirio diaz,,,,,colonia,centro,,,406,mexico                      ,valle de bravo,valle de bravo,0066,,,,fijo,2010-07,6355751,721112,406.0,,51200.0,15,110,1,8,19.19608957,-100.13303552
hotel bungalows lolita,,hoteles con otros servicios integrados,11 a 30 personas,boulevard,arturo san roman,prolongacion,cipres,calle,adolfo lopez mateos,calle,eva samano de lopez mateos,,,,,barrio,santa ana,,,,mexico                      ,ixtapan de la sal,ixtapan de la sal,0036,7211430016,hotelbungalowslolita@gmail.com,www.bungalowslolita.mx,fijo,2010-07,6357049,721111,33.0,,51900.0,15,40,1,20,18.85057716,-99.67700466
hotel cabanas,,hoteles con otros servicios integrados,0 a 5 personas,carretera,carretera a flor de maria,calle,ninguno,calle,ninguno,otro (especifique),ninguno,sn,,,,colonia,guadalupe,,,,mexico                      ,san felipe del progreso,colonia guadalupe,0195,7121040292,lascabanashotel@live.com,,fijo,2016-01,6538007,721111,,,50640.0,15,74,233,1,19.71731485,-99.92919745
hotel cabanas hacienda,,hoteles sin otros servicios integrados,0 a 5 personas,,ninguno,,ninguno,,ninguno,,ninguno,sn,,,,colonia,guadalupe victoria,,,,mexico                      ,otzolotepec,colonia guadalupe victoria,0222,,,,fijo,2014-12,2445825,721112,,,52080.0,15,67,5,1,19.39166788,-99.58121234
hotel california,hotel california sa de cv,hoteles sin otros servicios integrados,0 a 5 personas,calle,agricultores,calle,ejidal,calle,cerrada de las flores,calle,proletariado,sn,,,,colonia,emiliano zapata,,,,mexico                      ,ixtapaluca,ixtapaluca,0213,,,,fijo,2010-07,6228077,721112,27.0,,56557.0,15,39,1,5,19.31086187,-98.92867992
hotel california,,hoteles sin otros servicios integrados,6 a 10 personas,avenida,floresta,avenida,loma bonita,calle,sur 2,calle,oriente 9,,,,,colonia,reforma,,,,mexico                      ,nezahualcoyotl,ciudad nezahualcoyotl,1433,,,,fijo,2014-12,2347306,721112,201.0,,57840.0,15,58,1,28,19.37310762,-98.98205122
hotel california,,hoteles sin otros servicios integrados,0 a 5 personas,calle,las torres,calle,ignacio lopez rayon,avenida,diana laura riojas,privada,felipe berriozabal,sn,,,,colonia,luis donando colosio,,,,mexico                      ,ecatepec de morelos,ecatepec de morelos,4354,,,,fijo,2010-07,6265786,721112,37.0,,55024.0,15,33,1,26,19.6455699,-99.06255818
hotel california,,hoteles sin otros servicios integrados,0 a 5 personas,calle,ignacio allende,calle,20 de noviembre,calle,independencia,calle,mariano matamoros,b,,,,barrio,santa catarina,,,,mexico                      ,ixtapan de la sal,ixtapan de la sal,0106,,,,fijo,2010-07,6355438,721112,1.0,,51900.0,15,40,1,10,18.84404537,-99.67632141
hotel camino viejo,,hoteles sin otros servicios integrados,0 a 5 personas,calle,camino viejo a zapotlan,calle,guerrero,callejon,callejon del mamut,calle,callejon del mamut,sn,,,,colonia,san pedro,,,,mexico                      ,chiconcuac,chiconcuac de juarez,0044,015559235293,hotelrealtasquillo@yahoo.com,,fijo,2010-07,6347965,721112,,,56270.0,15,30,1,12,19.55308327,-98.89982825
hotel campestre,,hoteles sin otros servicios integrados,0 a 5 personas,carretera,jilotepec - corralejas,calle,ninguno,calle,ninguno,calle,ninguno,sn,,,,colonia,las manzanas,,,,mexico                      ,jilotepec,ejido de coscomate del progreso,0244,no tiene,,,fijo,2011-03,6266339,721112,,,54240.0,15,45,161,8,19.94691,-99.55509
hotel campestre,,hoteles con otros servicios integrados,0 a 5 personas,calle,jilotepec-ixtlahuaca,,ninguno,,ninguno,,ninguno,,,,,sector,ejido de coscomate,,,,mexico                      ,jilotepec,ejido de coscomate del progreso,0244,,,,fijo,2016-01,6507384,721111,,,54253.0,15,45,161,8,19.9470781,-99.55487222
hotel canada,ricard de toluca sa de cv,hoteles sin otros servicios integrados,6 a 10 personas,calle,instituto literario,calle,ignacio lopez rayon,calle,sor juana ines de la cruz,avenida,jose maria morelos y pavon,,,,,colonia,5 de mayo,,,,mexico                      ,toluca,toluca de lerdo,0491,,,,fijo,2010-07,6266746,721112,209.0,,50090.0,15,106,1,29,19.28626974,-99.65218484
hotel canario,,hoteles sin otros servicios integrados,0 a 5 personas,calle,libramiento oriente,calle,alvaro obregon,,i. ferrer ayala,,ninguno,,,,,barrio,santa maria sur,,,,mexico                      ,tonatico,tonatico,0075,,,,fijo,2010-07,6266507,721112,,,51950.0,15,107,1,1,18.80918026,-99.66548256
hotel candeli,"hospedajes bastet, s.a. de c.v.",hoteles sin otros servicios integrados,6 a 10 personas,avenida,juarez,avenida,cuauhtemoc,calle,rafael delgado,calle,pantitlan,sn,,,,colonia,mexico ii,,,,mexico                      ,nezahualcoyotl,ciudad nezahualcoyotl,0897,,,,fijo,2016-01,6711302,721112,,,,15,58,1,23,19.40372901,-99.04378431
hotel cantalagua inn,inmobiliaria olmeca centro sa de cv,hoteles con otros servicios integrados,11 a 30 personas,calle,isidro fabela sur,avenida,las mercedes,calle,ninguno,calle,san fernando,,,,,colonia,san martin,,,,mexico                      ,atlacomulco,atlacomulco de fabela,0426,7121222236,reservaciones@hotelcantalaguainn.com,www.hotelcantalaguainn.com,fijo,2010-07,6266725,721111,601.0,,50450.0,15,14,1,1,19.78705149,-99.86723393
hotel canto de aves,canto de aves eco boutique sa de cv,hoteles con otros servicios integrados,6 a 10 personas,calle,carretera federal malinalco-chalma,calle,ninguno,calle,ninguno,calle,ninguno,sn,,,,rinconada,el trapichito,,,,mexico                      ,malinalco,la ladrillera,0094,71414722472,cantodeaves@hotmail.com,www.cantodeaves.com,fijo,2016-01,6507447,721111,,,52464.0,15,52,10,18,18.92838088,-99.48743861
hotel capital,calbego sa de cv,hoteles con otros servicios integrados,11 a 30 personas,avenida,andres molina enriquez,avenida,pantitlan,calle,atlacomulco,calle,18,,,,sn,colonia,ancon,,,,mexico                      ,la paz,los reyes acaquilpan,0425,,,,fijo,2010-07,6265797,721111,1.0,,56430.0,15,70,1,29,19.36925901,-98.96898323
hotel capricho,,hoteles sin otros servicios integrados,0 a 5 personas,calle,emiliano f. montano,,7 de julio,,hidalgo,,porfirio diaz,,,,,colonia,otumba centro,,,,mexico                      ,otumba,otumba de gomez farias,0035,5583323983,globalfact@yahoo.com.mx,,fijo,2019-04,6878350,721112,10.0,7.0,43970.0,15,65,1,18,19.70054697,-98.75705069
hotel capuchinas,callari sa de cv,hoteles sin otros servicios integrados,6 a 10 personas,calle,capuchinas,calle,indio triste,avenida,texcoco,calle,cordobanes,,,,,aeropuerto,metropolitana 1ra seccion,,,,mexico                      ,nezahualcoyotl,ciudad nezahualcoyotl,1240,5547787193,a-dg@g-real.net,,fijo,2014-12,6349072,721112,18.0,,57730.0,15,58,1,25,19.39090749,-99.03459482
hotel casa beltran,,hoteles sin otros servicios integrados,0 a 5 personas,calle,mariano matamoros,calle,cuauhtemoc,calle,abelardo rodriguez,calle,jose maria morelos,,,,,barrio,santa maria norte,,,,mexico                      ,tonatico,tonatico,0041,,,,fijo,2010-07,6355717,721112,75.0,,51950.0,15,107,1,10,18.80843092,-99.66767332
hotel casa blanca,,hoteles con otros servicios integrados,0 a 5 personas,calle,hidalgo,calle,la ruleta,calle,abasolo,calle,la ruleta,,,,,colonia,centro,,,,mexico                      ,el oro,el oro de hidalgo,0108,7111250382,hotelcasablancaeloro@hotmail.com,,fijo,2014-12,6355788,721111,30.0,,50600.0,15,64,1,8,19.80094108,-100.12919485
hotel casa blanca,,hoteles sin otros servicios integrados,0 a 5 personas,,ninguno,,hidalgo,privada,mexico,,ninguno,,,,,colonia,sanchez,,,,mexico                      ,tejupilco,tejupilco de hidalgo,0445,,,,fijo,2010-07,6266569,721112,222.0,,51404.0,15,82,1,10,18.90848876,-100.15810333
hotel casa grande,,hoteles con otros servicios integrados,0 a 5 personas,calle,luis rivera montes de oca,avenida,mexico,calle,ninguno,calle,reforma agraria,sn,,,,barrio,molino arriba,,,,mexico                      ,temoaya,temoaya,0070,7192650352,h.casagrande.1@hotmail.com,,fijo,2014-12,2444341,721111,,,50850.0,15,87,1,17,19.46549107,-99.59281257
hotel casa nueva,,hoteles sin otros servicios integrados,0 a 5 personas,calle,villagran,calle,miguel hidalgo,calle,independencia,calle,don nicolas bravo,,,,,colonia,colonia centro,,,,mexico                      ,valle de bravo,valle de bravo,0066,,,,fijo,2010-07,6266677,721112,100.0,,51200.0,15,110,1,4,19.19370448,-100.13200172
hotel casa richer,,hoteles sin otros servicios integrados,0 a 5 personas,calle,queretaro,calle,lago de pazcuaro,,ninguno,,miguel negrete,,,,,barrio,san andres,,,,mexico                      ,malinalco,malinalco,008a,,,,fijo,2014-12,6355317,721112,,,52440.0,15,52,1,26,18.93909277,-99.49438304
hotel casa sarita,,hoteles con otros servicios integrados,0 a 5 personas,calle,alvaro obregon,calle,jose maria morelos,calle,primero de agosto,calle,aldama,,,,,barrio,santa ana,,,,mexico                      ,ixtapan de la sal,ixtapan de la sal,0110,7211432600,joker210186@gmail.com,,fijo,2010-07,6266824,721111,512.0,,51900.0,15,40,1,5,18.84549876,-99.67415794
hotel castello,operadora monterrey sa de cv,hoteles con otros servicios integrados,31 a 50 personas,calle,isabel la catolica,calle,avenida juarez,avenida,gustavo baz,calle,avenida juarez,,,,,colonia,naucalpan centro,,,,mexico                      ,naucalpan de juarez,naucalpan de juarez,1455,5553570060,,,fijo,2010-07,6266358,721111,6.0,,53000.0,15,57,1,38,19.47488275,-99.23401791
hotel castillo,,hoteles sin otros servicios integrados,6 a 10 personas,calle,manuel gonzalez,calle,fray pedro de gante,avenida,juarez norte,calle,cristobal colon,,,,,colonia,texcoco de mora centro,,,,mexico                      ,texcoco,texcoco de mora,1309,,,,fijo,2010-07,6348622,721112,235.0,,56100.0,15,99,1,20,19.51691159,-98.88254749
hotel cazadores,,hoteles sin otros servicios integrados,0 a 5 personas,calle,mariano riva palacio,calle,pantli,avenida,del penon,calle,tatac,sn,,,,barrio,tejedores,,,,mexico                      ,chimalhuacan,chimalhuacan,0126,,,,fijo,2014-12,2344416,721112,,,56356.0,15,31,1,3,19.42633756,-98.96695266
hotel cazadorez,hospedaje cazadores sa de cv,hoteles sin otros servicios integrados,6 a 10 personas,calle,plutarco gonzalez,calle,andres quintana roo,calle,plutarco gonzalez,calle,miguel hidalgo,,,,,colonia,la merced y alameda,,,,mexico                      ,toluca,toluca de lerdo,0449,017222158255,,www.hotelcazadorez.com,fijo,2010-07,6356070,721112,311.0,,50080.0,15,106,1,33,19.28928375,-99.66320905
hotel central,hospedaje mexiquense sa de cv,hoteles sin otros servicios integrados,11 a 30 personas,calle,caballo bayo,calle,chimalhuacan,avenida,cama de piedra,calle,zopilote mojado,,,,,colonia,benito juarez,,,,mexico                      ,nezahualcoyotl,ciudad nezahualcoyotl,0596,,,,fijo,2010-07,6347672,721112,91.0,,57000.0,15,58,1,3,19.40680753,-99.01823919
hotel central,operadora de servicios central s a de c v,hoteles sin otros servicios integrados,11 a 30 personas,avenida,adolfo lopez mateos,avenida,indio triste,avenida,texcoco,calle,capuchinas,,,,,colonia,metropolitana primera seccion,,,,mexico                      ,nezahualcoyotl,ciudad nezahualcoyotl,1240,,,,fijo,2010-07,6349639,721112,24.0,,57730.0,15,58,1,17,19.39213876,-99.03362968
hotel central,,hoteles sin otros servicios integrados,0 a 5 personas,calle,ignacio allende,,ninguno,,ninguno,,ninguno,sn,,,,rinconada,san mateo otzacatipan,,,,mexico                      ,toluca,san mateo otzacatipan,2271,,,,fijo,2016-01,6711867,721112,,,50200.0,15,106,79,12,19.33908716,-99.60162236
hotel central suites,hospedaje mexiquense sa de cv,hoteles sin otros servicios integrados,11 a 30 personas,avenida,central,,ninguno,,ninguno,,ninguno,sn,,,,colonia,colonial ecatepec,,,,mexico                      ,ecatepec de morelos,ecatepec de morelos,4725,,,,fijo,2010-07,6349077,721112,,,55064.0,15,33,1,27,19.6055812,-99.01233562
hotel centro,,hoteles sin otros servicios integrados,0 a 5 personas,calle,plaza independencia,calle,del deposito,avenida,joaquin arcadio pagaza,calle,de la cruz,sn,,,,colonia,centro,,,,mexico                      ,valle de bravo,valle de bravo,0070,,,,fijo,2010-07,6266600,721112,,,51200.0,15,110,1,13,19.19348481,-100.13116435
hotel centro chinconcuac,,hoteles sin otros servicios integrados,0 a 5 personas,callejon,venustiano carranza,callejon,venustiano carranza,calle,hidalgo,calle,benito juarez,,,,,colonia,san miguel,,,,mexico                      ,chiconcuac,chiconcuac de juarez,0078,,,,fijo,2010-07,6265469,721112,2.0,,56270.0,15,30,1,7,19.55819023,-98.89600852
hotel cervantes,,hoteles sin otros servicios integrados,0 a 5 personas,avenida,constituyentes,avenida,avenida moctezuma,calle,guadalupe victoria,avenida,moctezuma,,,,,barrio,san agustin,,,,mexico                      ,xalatlaco,xalatlaco,0061,,,,fijo,2010-07,6266614,721112,59.0,,51680.0,15,43,1,7,19.1811898,-99.42260221
hotel chais,,hoteles sin otros servicios integrados,0 a 5 personas,calle,valle de bravo - colorines,,ninguno,,ninguno,,ninguno,,,,,colonia,san gaspar,,,,mexico                      ,valle de bravo,san gaspar,0140,,,,fijo,2010-07,6266415,721112,,,51200.0,15,110,38,1,19.22836124,-100.13755247
hotel chamizal,rosadora sa de cv,hoteles sin otros servicios integrados,0 a 5 personas,calle,benito juarez,calle,isla santa catarina,calle,vallejo,boulevard,isla de guadalupe,,,,,colonia,prado vallejo,,,,mexico                      ,tlalnepantla de baz,tlalnepantla,1122,,,,fijo,2010-07,6355601,721112,2.0,,54170.0,15,104,1,22,19.5088289,-99.15990904
hotel chapingo,hoteles y posadas chapingo sa de cv,hoteles con otros servicios integrados,11 a 30 personas,carretera,carretera lecheria texcoco km 21.5,calle,merida,calle,amapola,calle,ninguno,sn,,,sn,colonia,san pedro,,,,mexico                      ,texcoco,salitreria,1629,0159313296,hotelchapingo@gmail.com,,fijo,2010-07,6265435,721111,,,56150.0,15,99,173,24,19.50008224,-98.89523935
hotel chimalhuacan,hotel chimalhuacan sa de cv,hoteles sin otros servicios integrados,11 a 30 personas,avenida,bordo de xochiaca,avenida,de las torres,avenida,sindicalismo,calle,acayetl,sn,,,,barrio,tlatelco,,,,mexico                      ,chimalhuacan,chimalhuacan,0183,,,,fijo,2010-07,6265829,721112,,,56353.0,15,31,1,36,19.41382188,-98.98627347
hotel cies,hotel cies sa,hoteles con otros servicios integrados,11 a 30 personas,avenida,central,calle,manuel avila camacho,avenida,jacarandas,calle,gladiolas,,,,,colonia,florida,,,,mexico                      ,ecatepec de morelos,ecatepec de morelos,0934,5557835212,cieshotel@prodigy.net.mx,,fijo,2010-07,6265326,721111,34.0,,55120.0,15,33,1,18,19.51226807,-99.03676572
hotel citlaly,hotel citlaly,hoteles con otros servicios integrados,0 a 5 personas,calle,20 de noviembre,calle,plan de ayala,calle,independencia,calle,emiliano zapata,sn,,,,localidad,plaza nueva,,,,mexico                      ,ocuilan,plaza nueva,0098,7141910125,,,fijo,2014-12,6266441,721111,,,52490.0,15,63,16,5,18.92950462,-99.43444378
hotel city express,impulsora plaza juarez sa de cv,hoteles sin otros servicios integrados,11 a 30 personas,boulevard,miguel aleman (aeropuerto),privada,ninguno,calle,ninguno,autopista,ninguno,b,,,,colonia,parque industrial lerma,,,,mexico                      ,san mateo atenco,san mateo atenco,0414,7222758030,cetlcgerencia@cityexpress.com.mx,www.cityexpress.com.mx,fijo,2016-10,6740005,721112,55.0,,52000.0,15,76,1,7,19.30000012,-99.55942754
hotel city express lerma,promotora plaza sol sa de cv,hoteles con otros servicios integrados,11 a 30 personas,boulevard,miguel aleman aeropuerto,cerrada,hacienda santa rosa,calle,real a san pedro,calle,emiliano zapata antiguo camino al cerrillo,,,,,colonia,francisco i madero,,,,mexico                      ,lerma,lerma de villada,0472,5552498050,ngonzalez@hotelescity.com,www.hotelescity.com,fijo,2017-11,6813989,721111,1.0,,50209.0,15,51,1,1,19.30560443,-99.56028791
hotel coacalco,inmobiliaria lisboa sa,hoteles con otros servicios integrados,11 a 30 personas,calle,via jose lopez portillo (a tlalnepantla),calle,primera cerrada de nino perdido,avenida,avenida de las fuentes,calle,independencia,sn,,,,colonia,san lorenzo tetlixtac,,,,mexico                      ,coacalco de berriozabal,san francisco coacalco,018a,5558652350,hyotelcoacalco@hotmail.com,,fijo,2010-07,6265340,721111,,,55714.0,15,20,1,3,19.62854232,-99.08266247
hotel coatepec,,hoteles con otros servicios integrados,0 a 5 personas,calle,san juan,calle,camino viejo,calle,prolongacion san juan,calle,agricultura,sn,,,sn,colonia,coatepec,,,,mexico                      ,ixtapaluca,coatepec,0800,5559880026,,,fijo,2010-07,6265799,721111,,,56580.0,15,39,4,9,19.38147041,-98.84840696
hotel colon,operadora sehara sa de cv,hoteles sin otros servicios integrados,0 a 5 personas,calle,cristobal colon,calle,leandro valle,,ninguno,calle,campo florido,,,,,colonia,centro,,,,mexico                      ,texcoco,texcoco de mora,1309,,,,fijo,2010-07,6265578,721112,218.0,,56100.0,15,99,1,22,19.5157555,-98.88575599
hotel colonial,,hoteles con otros servicios integrados,6 a 10 personas,avenida,miguel hidalgo,calle,leona vicario,calle,jose maria gonzalez arratia,calle,primero de mayo,,,,,colonia,centro,,,,mexico                      ,toluca,toluca de lerdo,0453,7222159700,despachogaytan@gmail.com,,fijo,2010-07,6266833,721111,103.0,,50000.0,15,106,1,3,19.29034298,-99.65384919
hotel concorde,vilacha sa de cv,hoteles con otros servicios integrados,11 a 30 personas,boulevard,aeropuerto miguel aleman,calle,ninguno,boulevard,aeropuerto miguel aleman,calle,ninguno,,,,,colonia,san pedro totoltepec,,,,mexico                      ,toluca,san pedro totoltepec,3509,7222731097,vilachasa@hotmail.com,www.hotelconcorde.com.mx,fijo,2010-07,6354399,721111,109.0,,50226.0,15,106,84,1,19.31228526,-99.56199001
hotel coronado,,hoteles sin otros servicios integrados,0 a 5 personas,terraceria,san nicolas-santa teresita,,ninguno,,ninguno,,ninguno,,,,,rinconada,santa teresita,,,,mexico                      ,tenancingo,convento del santo desierto del carmen,0148,,,,fijo,2014-12,6266405,721112,,,52400.0,15,88,41,800,18.93434,-99.5736
hotel cortijo metepec,,hoteles con otros servicios integrados,0 a 5 personas,calle,pino suarez kilometro 2+500,calle,ninguno,calle,ayuntamiento,calle,ayuntamiento,sn,,,,colonia,xinantecatl,,,,mexico                      ,metepec,san jorge pueblo nuevo,1010,7222078072,mireyagranados@hotmail.com,www.hotelcortijometepec.com.mx,fijo,2010-07,6266447,721111,,,52169.0,15,54,38,34,19.26157204,-99.63014362
hotel cosmos,,hoteles sin otros servicios integrados,6 a 10 personas,calle,santos degollado,calle,sor juana ines de la cruz,calle,ignacio lopez rayon,avenida,sebastian lerdo de tejada,,,,,colonia,zopilocalco,,,,mexico                      ,toluca,toluca de lerdo,0383,,,,fijo,2010-07,6356079,721112,204.0,,50000.0,15,106,1,3,19.29392746,-99.6525933
hotel costa verde inn,hotel costa verde inn sa de cv,hoteles con otros servicios integrados,0 a 5 personas,avenida,cuauhtemoc,calle,gabriel leyva,privada,146 c,calle,primer carril de los hornos,,,,sn,colonia,hornos de santa barbara,,,,mexico                      ,ixtapaluca,ixtapaluca,1847,5559746848,,,fijo,2010-07,6349684,721111,25.0,,56530.0,15,39,1,23,19.31107749,-98.90554935
hotel courtyard inn vallejo,fideicomiso f/1596 ,hoteles con otros servicios integrados,11 a 30 personas,calle,via gustavo baz,calle,calzada de la naranja,calle,alce blanco,calle,9,,,,,colonia,cruz de las salinas,,,,mexico                      ,naucalpan de juarez,naucalpan de juarez,139a,015550001750,,www.fideicomiso.com,fijo,2017-11,6801571,721111,1090.0,,53900.0,15,57,1,2,19.47958446,-99.23117155
hotel courtyard marriott tollocan,operadora el gran hotel sa de cv,hoteles con otros servicios integrados,11 a 30 personas,avenida,paseo tollocan,,francisco i. madero,,ninguno,,jose maria pino suarez,,,,,colonia,santa anna tlapaltitlan,,,,mexico                      ,toluca,santa ana tlapaltitlan,4244,7222799911,,www.hotelesmarriottinternacional.com,fijo,2019-04,6863338,721111,843.0,,50120.0,15,106,86,2,19.28747334,-99.62082812
hotel crowne plaza,servicios especiales turisticos sa de cv,hoteles con otros servicios integrados,51 a 100 personas,calle,roberto fulton,avenida,mario colin,calle,sor juana ines de la cruz,avenida,mario colin,,,,,colonia,san lorenzo,,,,mexico                      ,tlalnepantla de baz,tlalnepantla,1885,5552289580,,www.crownplaza.com,fijo,2010-07,6266457,721111,2.0,,54030.0,15,104,1,20,19.53713068,-99.20410453
hotel crowne plaza lancaster toluca,operadora plaza lancaster toluca sa de cv,hoteles con otros servicios integrados,31 a 50 personas,avenida,paseo tollocan,privada,ninguno,calle,tecnologico,calle,16 de septiembre,,,,,colonia,francisco i madero,,,,mexico                      ,metepec,san jeronimo chicahualco,0987,7222754475,divisioncuartos@cptoluca.com.mx,www.crownplaza.com/tolucalancaster,fijo,2010-07,6266619,721111,750.0,,52170.0,15,54,37,11,19.28618186,-99.57404556
hotel crowne victoria,inmobiliaria avia sa de cv,hoteles con otros servicios integrados,11 a 30 personas,calle,via jose lopez portillo,calle,benito juarez,calle,"avenida universidad hispanoamericana, boulevard san carlos",calle,el plomero,,,,,colonia,guadalupe victoria,,,,mexico                      ,ecatepec de morelos,ecatepec de morelos,1985,5558651115,inmoviliariaavia@gmail.com,,fijo,2010-07,6346759,721111,760.0,,55010.0,15,33,1,2,19.6235095,-99.07528229
hotel cuatro caminos,,hoteles sin otros servicios integrados,0 a 5 personas,,ninguno,,ninguno,,ninguno,,ninguno,sn,,,,sector,la marqueza,,,,mexico                      ,ocoyoacac,valle del silencio [parque recreativo],0156,,,,fijo,2014-12,6355272,721112,,,52740.0,15,62,32,800,19.29956,-99.38694
hotel dali,,hoteles sin otros servicios integrados,0 a 5 personas,avenida,torres adalid,avenida,prolongacion 5 de mayo,calle,emiliano f. montano,calle,lazaro cardenas,,,,,colonia,centro,,,,mexico                      ,otumba,otumba de gomez farias,0035,5583323983,globalfact@yahoo.com.mx,,fijo,2010-07,6265512,721112,13.0,,55900.0,15,65,1,23,19.69923159,-98.75539793
hotel dalinda,,hoteles sin otros servicios integrados,0 a 5 personas,calle,16 de septiembre,calle,de las chichipicas,calle,de las ratas,calle,del deposito,,,,,colonia,centro,,,,mexico                      ,valle de bravo,valle de bravo,0117,,,,fijo,2010-07,6266684,721112,102.0,,51200.0,15,110,1,23,19.19501392,-100.12947392
hotel damariis,,hoteles con otros servicios integrados,0 a 5 personas,calle,avenida 2,calle,ninguno,avenida,3,avenida,recursos hidraulicos,,,,,puerto,cartagena,,,,mexico                      ,tultitlan,tultitlan de mariano escobedo,0351,5576907336,jovasjmartinez@gmail.com,,fijo,2010-07,6265627,721111,174.0,,54942.0,15,109,1,3,19.64357793,-99.15233594
hotel de los angeles,,hoteles sin otros servicios integrados,0 a 5 personas,calle,maria luisa de ruiz cataneda,calle,panamericana,calle,constitucion,calle,constitucion,,,,,colonia,centro,,,,mexico                      ,acambay de ruiz castaneda,villa de acambay de ruiz castaneda,0127,,,,fijo,2010-07,6266695,721112,2.0,,50300.0,15,1,1,27,19.95406531,-99.84535112
hotel de paz,,hoteles sin otros servicios integrados,0 a 5 personas,calle,reforma,calle,libertad,calle,iturbide,calle,dalias,,,,,barrio,cruz verde,,,,mexico                      ,san simon de guerrero,san simon de guerrero,0036,,,,fijo,2010-07,6357045,721112,5.0,,51470.0,15,77,1,5,19.02322637,-100.00723859
hotel del angel,,hoteles sin otros servicios integrados,0 a 5 personas,calle,norte 29,calle,oriente 3,calle,oriente 2,avenida,ricardo flores magon,,,,,colonia,independencia,,,,mexico                      ,valle de chalco solidaridad,xico,0531,,,,fijo,2010-07,6265645,721112,615.0,,56617.0,15,122,1,1,19.30232778,-98.93714077
hotel del bosque,,hoteles con otros servicios integrados,0 a 5 personas,calle,carretera aculco el rosal kilometro 2.5,calle,ninguno,calle,rancho san jose,calle,ninguno,sn,,,,rinconada,santa maria nativitas,,,,mexico                      ,aculco,santa maria nativitas,0189,,,,fijo,2016-01,6538006,721111,,,50376.0,15,3,28,21,20.09459155,-99.80079676
hotel del centro,,hoteles sin otros servicios integrados,0 a 5 personas,calle,aldama,calle,de los ramos,avenida,benito juarez,calle,insurgentes,sn,,,,colonia,centro,,,,mexico                      ,otzolotepec,villa cuauhtemoc,0190,,,,fijo,2014-12,2445380,721112,,,52080.0,15,67,1,11,19.41630051,-99.55695468
hotel del general,,hoteles sin otros servicios integrados,0 a 5 personas,calle,lerdo de tejada,calle,pedro ascencio,calle,nicolas bravo,,ignacio zaragoza,,,,,colonia,centro,,,,mexico                      ,tejupilco,tejupilco de hidalgo,0464,,,,fijo,2010-07,6266670,721112,16.0,,51400.0,15,82,1,24,18.90669854,-100.15174765
hotel del lago,nueva atizapan sa de cv,hoteles con otros servicios integrados,31 a 50 personas,calle,avenida teloloapan,calle,flor de xiaqui,calle,lago de guadalupe,calle,lago de guadalupe,sn,0,planta baja,sn,colonia,san jose del jaral,,,,mexico                      ,atizapan de zaragoza,ciudad lopez mateos,072a,015558879028,hoteldellago@prodigy.net.mx,www.hoteldellago.com.mx,fijo,2010-07,6349079,721111,,,52924.0,15,13,1,1,19.60595305,-99.22543173
hotel del norte,,hoteles sin otros servicios integrados,0 a 5 personas,calle,luis e. alvarez,calle,manuel avila camacho,calle,jose maria morelos y pavon,calle,emiliano zapata,,,,,ciudad,colonia melchor muzquiz,,,,mexico                      ,ecatepec de morelos,ecatepec de morelos,0934,,,,fijo,2010-07,6265819,721112,106.0,,55130.0,15,33,1,13,19.50930473,-99.03784218
hotel del prado,,hoteles sin otros servicios integrados,0 a 5 personas,avenida,isidro fabela,avenida,sur 4,avenida,tlaloc,calle,oriente 11,sn,,,,colonia,santa cruz,,,,mexico                      ,valle de chalco solidaridad,xico,0207,,,,fijo,2010-07,6348240,721112,,,56616.0,15,122,1,12,19.28341532,-98.9326108
hotel del real,grupo inmobiliario pabeir sa de cv,hoteles con otros servicios integrados,6 a 10 personas,calle,riva palacio,calle,iturbide,callejon,callejon de la malinche,calle,rio,,,,sn,colonia,centro,,,,mexico                      ,temascaltepec,temascaltepec de gonzalez,0073,7162665102,,www.grupoinmobiliariopabeir.com,fijo,2010-07,6266822,721111,3.0,,51300.0,15,86,1,13,19.04395948,-100.04266818
hotel del recuerdo,,hoteles con otros servicios integrados,0 a 5 personas,calle,licenciado benito juarez,calle,alvaro obregon,calle,francisco villa,calle,ninguno,sn,,,sn,colonia,centro,,,,mexico                      ,texcaltitlan,texcaltitlan,0058,7162636171,,,fijo,2010-07,6266577,721111,,,51670.0,15,97,1,15,18.92928744,-99.93916222
hotel del valle,real cari sa de cv,hoteles sin otros servicios integrados,6 a 10 personas,avenida,tezozomoc,avenida,poniente 10,calle,poniente 8-a,calle,sur 16,sn,,,,colonia,alfredo del mazo,,,,mexico                      ,valle de chalco solidaridad,xico,0014,,,,fijo,2010-07,6265641,721112,,,56612.0,15,122,1,38,19.27842078,-98.94960067
hotel del valle,hotel del valle de mexico sa de cv,hoteles con otros servicios integrados,11 a 30 personas,calle,avenida central carlos hank gonzalez,avenida,rio de los remedios,calle,valle del vistula,calle,valle nacional,,,,,colonia,valle de aragon segunda seccion,,,,mexico                      ,nezahualcoyotl,ciudad nezahualcoyotl,2022,5557803231,jessii2012@hotmail.com,,fijo,2010-07,6349660,721111,849.0,,57100.0,15,58,1,6,19.4896614,-99.04677166
hotel del virrey,,hoteles sin otros servicios integrados,6 a 10 personas,calle,insurgentes,calle,cristobal colon,calle,lorenzo ayala,andador,abasolo,,,,,barrio,texcacoa,,,sn,mexico                      ,tepotzotlan,tepotzotlan,0208,,,,fijo,2010-07,6353788,721112,13.0,,54605.0,15,95,1,22,19.71247629,-99.21814362
hotel delicias,costa de malaga sa de cv,hoteles con otros servicios integrados,11 a 30 personas,avenida,av chalma,calle,mexico-queretaro,calzada,calzada a la venta,calzada,calzada a la venta,,,,,parque industrial,industrial cuamatla,,parque industrial cuamatla,3,mexico                      ,cuautitlan izcalli,cuautitlan izcalli,0252,015555558732922,deliciashotel@yahoo.com.mx,,fijo,2010-07,6346800,721111,3.0,,54730.0,15,121,1,7,19.66986217,-99.20129135
hotel delicias,,hoteles sin otros servicios integrados,0 a 5 personas,,ninguno,,ninguno,,ninguno,,ninguno,,,,,prolongacion,manzana segunda de santa cruz tepexpan,,,,mexico                      ,jiquipilco,manzana segunda de santa cruz tepexpan,0126,,,,fijo,2010-07,6266425,721112,,,50820.0,15,47,95,5,19.57995221,-99.69675042
hotel di marg,,hoteles sin otros servicios integrados,0 a 5 personas,calle,zaragoza,calle,panamericana,,ninguno,cerrada,16 de septiembre,,,,,colonia,independencia,,,5,mexico                      ,acambay de ruiz castaneda,villa de acambay de ruiz castaneda,0127,,,,fijo,2010-07,6354849,721112,5.0,,50300.0,15,1,1,14,19.95173682,-99.845317
hotel doade,doade sa,hoteles con otros servicios integrados,11 a 30 personas,avenida,texcoco,calle,condesa,calle,san rafael,calle,calle del valle,,,,sn,colonia,vicente villada,,,,mexico                      ,nezahualcoyotl,ciudad nezahualcoyotl,1310,5557329705,hotel_doade@hotmail.com,,fijo,2010-07,6349644,721111,526.0,,57710.0,15,58,1,27,19.37865806,-99.01016964
hotel dominguez casa raul,hotel dominguez casa raul sa de cv,hoteles con otros servicios integrados,0 a 5 personas,calle,5 de febrero,calle,jose maria morelos,calle,primero de agosto,calle,alvaro obregon,,,,,colonia,centro,,,,mexico                      ,ixtapan de la sal,ixtapan de la sal,0110,7211430089,,,fijo,2010-07,6266825,721111,514.0,,51900.0,15,40,1,1,18.84501978,-99.67416493
hotel don ale,,hoteles sin otros servicios integrados,6 a 10 personas,calle,paseo de los insurgentes,calle,nezahualcoyotl oriente,calle,moctezuma oriente,calle,matamoros norte,,,,,colonia,centro,,,,mexico                      ,tenancingo,tenancingo de degollado,0063,,,,fijo,2010-07,6266630,721112,309.0,,52400.0,15,88,1,20,18.96539885,-99.58646441
hotel don isidro,,hoteles con otros servicios integrados,0 a 5 personas,avenida,benito juarez,calle,ecologia,calle,constitucion,calle,miguel hidalgo,,,,,barrio,san gaspar,,,,mexico                      ,ixtapan de la sal,ixtapan de la sal,0036,7211430315,ado29ta@hotmail.com,,fijo,2010-07,6357048,721111,417.0,,51907.0,15,40,1,41,18.84943012,-99.6787552
hotel don primo,hotel don primo,hoteles con otros servicios integrados,0 a 5 personas,calle,jose maria pino suarez,calle,rinconada de pino suarez,calle,instituto literario,calle,rinconada de pino suarez,,,,,colonia,san sebastian,,,,mexico                      ,toluca,toluca de lerdo,0491,,,,fijo,2010-07,6266836,721111,307.0,,50090.0,15,106,1,31,19.287297100000004,-99.64992098
hotel don simon,hotel simon sa de cv,hoteles con otros servicios integrados,11 a 30 personas,calle,mariano matamoros,avenida,miguel hidalgo,avenida,jose maria morelos y pavon,calle,hermenegildo galeana,,,,,colonia,centro,,,,mexico                      ,toluca,toluca de lerdo,0487,7222132696,hoteldonsimon@gmail.com,www.hotelsimontoluca,fijo,2010-07,6266594,721111,202.0,,50000.0,15,106,1,9,19.28774438,-99.65641392
hotel dorado,,hoteles sin otros servicios integrados,0 a 5 personas,calle,pino suarez,calle,francisco i. madero,calle,avenida juarez,calle,aquiles serdan,b,,,,barrio,loma bonita,,,,mexico                      ,apaxco,apaxco de ocampo,0234,,,,fijo,2014-12,2242577,721112,2.0,,55660.0,15,10,1,2,19.9632348,-99.17228401
hotel dorantes,,hoteles con otros servicios integrados,0 a 5 personas,calle,ecologia,calle,benito juarez,calle,miguel hidalgo,calle,constitucion,,,,,barrio,san gaspar,,,,mexico                      ,ixtapan de la sal,ixtapan de la sal,0036,,,,fijo,2010-07,6357047,721111,4.0,,51900.0,15,40,1,41,18.84947222,-99.67918012
hotel dos,callari sa de cv,hoteles con otros servicios integrados,6 a 10 personas,calle,hacienda de xajay,calle,avenida hacienda de pasteje,calle,avenida hacienda de la noria,calle,hacienda de la escondida,,,,,colonia,impulsora,,,,mexico                      ,nezahualcoyotl,ciudad nezahualcoyotl,0149,5547787193,a-dg@-real.net,,fijo,2014-12,6437502,721111,191.0,,57130.0,15,58,1,8,19.48518081,-99.04826319
hotel dulce amanecer,,hoteles sin otros servicios integrados,0 a 5 personas,boulevard,tenango toluca narcizo bassols,boulevard,revolucion,calle,lindavista,calle,revolucion,23.5,,,,colonia,lindavista,,,,mexico                      ,tenango del valle,tenango de arista,0201,,,,fijo,2010-07,6266396,721112,23.0,,52300.0,15,90,1,16,19.09387532,-99.58626565
hotel dulce amanecer,,hoteles sin otros servicios integrados,0 a 5 personas,boulevard,tenango toluca narcizo bassols,boulevard,revolucion,calle,lindavista,,revolucion,sn,,,,colonia,la joya,,,,mexico                      ,tenango del valle,tenango de arista,0201,,,,fijo,2010-07,6266541,721112,,,52305.0,15,90,1,16,19.09388046,-99.586266
hotel du-palais,,hoteles sin otros servicios integrados,0 a 5 personas,calle,general anaya,calle,buenavista,avenida,jose maria morelos,calle,licenciado benito juarez,,,,,colonia,san isidro,,,,mexico                      ,capulhuac,capulhuac de mirafuentes,0117,,,,fijo,2010-07,6266484,721112,509.0,,52700.0,15,19,1,3,19.19736665,-99.46669099
hotel ecatepec,inmobiliaria oporto sa de cv,hoteles con otros servicios integrados,11 a 30 personas,avenida,carlos hank gonzalez,calle,valle del don,calle,valle del elba,calle,valle del tajo,,,,,colonia,colonia valle de aragon tercera seccion,,,,mexico                      ,ecatepec de morelos,ecatepec de morelos,2911,5557830317,h.ecatepec@outlook.com,,fijo,2010-07,6265327,721111,287.0,,55280.0,15,33,1,24,19.49754139,-99.04428709
hotel ecatepec,peni&as sa de cv,hoteles con otros servicios integrados,11 a 30 personas,calle,ignacio allende,calle,ecatepec,calle,cerezo,carretera,mexico-pachuca,,,,,colonia,colonia san cristobal ecatepec,,,,mexico                      ,ecatepec de morelos,ecatepec de morelos,0099,015557875211,hotelecatepec@gmail.com,,fijo,2010-07,6265755,721111,18.0,,55000.0,15,33,1,6,19.59430742,-99.03916791
hotel eclipse,,hoteles sin otros servicios integrados,0 a 5 personas,avenida,nacional,avenida,insurgentes,calle,libertad,calle,benito noguez,sn,,,,colonia,san martin cuautlalpan,,,,mexico                      ,chalco,san martin cuautlalpan,1574,,,,fijo,2014-12,2377495,721112,2.0,,56644.0,15,25,14,23,19.26991544,-98.8309852
hotel eclipse,,hoteles sin otros servicios integrados,0 a 5 personas,calle,sandia,calle,lima,,ninguno,calle,segundo carril de los hornos,sn,,,,colonia,hornos de santa barbara,,,,mexico                      ,ixtapaluca,ixtapaluca,1847,,,,fijo,2014-12,2358564,721112,,,56570.0,15,39,1,33,19.31594527,-98.90179084
hotel el aguila real,,hoteles con otros servicios integrados,0 a 5 personas,calle,plaza hidalgo,calle,ninguno,calle,aztecas,calle,plaza hidalgo,sn,,,,colonia,centro,,,,mexico                      ,villa del carbon,villa del carbon,0164,5889130028,hotelaguliareal@hotmail.com,,fijo,2014-12,2474175,721111,3.0,,54300.0,15,112,1,35,19.7276619,-99.46368914
hotel el arco,hotel el arco,hoteles sin otros servicios integrados,6 a 10 personas,,toluca,,durango,terraceria,16 de septiembre,,vergel,,,,,colonia,el arco,,,,mexico                      ,valle de bravo,valle de bravo,0066,,,,fijo,2014-12,6266413,721112,,,51200.0,15,110,1,21,19.19638289,-100.13046404
hotel el asoleadero,,hoteles sin otros servicios integrados,6 a 10 personas,calle,del comercio,calle,hidalgo,avenida,aldama,avenida,del progreso,,,,,barrio,san juan,,,,mexico                      ,malinalco,malinalco,0056,,,,fijo,2010-07,6266841,721112,24.0,,52440.0,15,52,1,4,18.95283001,-99.49623209
hotel el bosque,,hoteles con otros servicios integrados,0 a 5 personas,calle,llano grande,calle,california,calle,ninguno,calle,ninguno,sn,,,,colonia,quinta manzana de canalejas,,el bosque,sn,mexico                      ,jilotepec,canalejas,0441,7617343297,hotelelbosque@yahoo.com.mx,www.hotelelbosque.com.mx,fijo,2010-07,6355790,721111,,,54240.0,15,45,7,19,19.99373968,-99.61886428
hotel el brinco de las ranas,,hoteles sin otros servicios integrados,0 a 5 personas,terraceria,valle de bravo - colorines,,ninguno,,ninguno,,ninguno,,,,,colonia,san gaspar,,,,mexico                      ,valle de bravo,el arco,0140,,,,fijo,2014-12,6266417,721112,,,51200.0,15,110,97,1,19.22763231,-100.13198107
hotel el calvario,,hoteles con otros servicios integrados,0 a 5 personas,avenida,atlacomulco,calle,ignacio zaragoza,calle,isidro fabela,calle,5 de mayo,sn,,,,colonia,el calvario,,,,mexico                      ,atlacomulco,santiago acutzilapan,0290,7121276420,,,fijo,2010-07,6266474,721111,,,50450.0,15,14,54,8,19.79082224,-99.75770436
hotel el campanario,yapar sa de cv,hoteles con otros servicios integrados,31 a 50 personas,calle,industria minera,calle,felipe chavez,,ninguno,calle,tomas alva edison,,,,,colonia,san lorenzo tepaltitlan,,,,mexico                      ,toluca,san lorenzo tepaltitlan,4174,,,,fijo,2010-07,6266769,721111,503.0,,50010.0,15,106,75,14,19.30243242,-99.62646986
hotel el cipres,,hoteles sin otros servicios integrados,0 a 5 personas,calle,amado nervo,calle,juan herrera y pina,calle,benito juarez,boulevard,juan herrera y pina,,,,,colonia,colonia el calvario,,,,mexico                      ,valle de bravo,valle de bravo,0102,,,,fijo,2010-07,6266674,721112,8.0,,51200.0,15,110,1,14,19.20195742,-100.13273615
hotel el conde sa de cv,hotel el conde sa de cv,hoteles sin otros servicios integrados,11 a 30 personas,calle,san andres atoto,calle,cuautitlan,calle,acambay,calle,ozumba,,,,,colonia,el conde,,,,mexico                      ,naucalpan de juarez,naucalpan de juarez,1544,,,,fijo,2010-07,6266564,721112,23.0,,53500.0,15,57,1,9,19.47063733,-99.22969418
hotel el diamante,,hoteles sin otros servicios integrados,0 a 5 personas,calle,el puente,,ninguno,andador,tezontle,andador,tezontle,,,,,prolongacion,chalma,,,,mexico                      ,malinalco,chalma,0094,,,,fijo,2014-12,2487751,721112,,,52440.0,15,52,8,37,18.93093377,-99.43585169
hotel el dorado,,hoteles con otros servicios integrados,6 a 10 personas,avenida,isidro fabela norte,avenida,jose vicente villada,avenida,alfredo del mazo oriente,calle,gregorio montiel,sn,,,,colonia,centro,,,,mexico                      ,atlacomulco,atlacomulco de fabela,0341,7121220711,,,fijo,2010-07,6266433,721111,,,50450.0,15,14,1,6,19.80215362,-99.87334675
hotel el encanto,,hoteles sin otros servicios integrados,0 a 5 personas,carretera,camino a la mina (la joya),carretera,asuncion,calle,san miguel,calle,cedros,sn,,,,colonia,lomas de santa cruz,,,,mexico                      ,chimalhuacan,chimalhuacan,1533,,,,fijo,2010-07,6349269,721112,,,56390.0,15,31,1,22,19.381863600000006,-98.90852612
hotel el encanto,,hoteles sin otros servicios integrados,0 a 5 personas,calle,pino suarez,calle,francisco villa,calle,emiliano zapata,calle,ignacio allende,sn,,,,colonia,san miguel tocuila,,,,mexico                      ,texcoco,san miguel tocuila,1563,,,,fijo,2014-12,6347256,721112,200.0,,56208.0,15,99,44,24,19.52238922,-98.90492346
hotel el encanto de los reyes,jobama servios y mobiliarios sa de cv,hoteles con otros servicios integrados,0 a 5 personas,calle,emiliano zapata,calle,libertad,calle,miguel hidalgo,calle,centenario,sn,,,,colonia,los reyes,,,,mexico                      ,la paz,los reyes acaquilpan,0035,5558557489,,,fijo,2014-12,6265795,721111,,,56400.0,15,70,1,18,19.35549711,-98.9757315
hotel el granado,,hoteles sin otros servicios integrados,0 a 5 personas,calle,del progreso,calle,de enmedio,calle,del tanque,calle,nardos,,,,,barrio,de san juan,,,,mexico                      ,malinalco,malinalco,0056,,,,fijo,2010-07,6266367,721112,505.0,,52440.0,15,52,1,24,18.9561656,-99.49601598
hotel el horizonte,,hoteles con otros servicios integrados,0 a 5 personas,calle,calle del tambor,privada,camino la mora,privada,ninguno,calle,camino la mora,,,,,barrio,la pena,,,sn,mexico                      ,valle de bravo,valle de bravo,0193,017262627279,susana260669@hotmail.com,,fijo,2014-12,6266478,721111,20.0,,51200.0,15,110,1,10,19.20285554,-100.14066744
hotel el insurgente,,hoteles sin otros servicios integrados,0 a 5 personas,avenida,monte de las cruces,avenida,marqueza juana de zuniga,calle,hacienda molino blanco,calle,carbonera del rey,,,,,colonia,la marqueza,,,,mexico                      ,ocoyoacac,la marquesa,0156,,,,fijo,2014-12,6266691,721112,1.0,,52740.0,15,62,18,1,19.2997005,-99.37067431
hotel el lagreste del lagarto,,hoteles sin otros servicios integrados,0 a 5 personas,calle,federal mexico-chalma,,mexico-chalma,calle,nino perdido,calle,federal mexico-chalma,sn,,,,colonia,santa monica,,,,mexico                      ,ocuilan,santa monica,0134,,,,fijo,2014-12,2488239,721112,,,52483.0,15,63,25,33,18.99660945,-99.42087851
hotel el marquez,,hoteles sin otros servicios integrados,0 a 5 personas,calle,20 de noviembre,calle,libertad,calle,guadalupe victoria,calle,avenida licenciado benito juarez,sn,,,,barrio,panoaya,,,,mexico                      ,amecameca,amecameca de juarez,0036,,,,fijo,2010-07,6348600,721112,,,56900.0,15,9,1,5,19.13433461,-98.77086319
hotel el milenium,,hoteles sin otros servicios integrados,0 a 5 personas,calle,salvador sanchez colin,calle,benito juarez,calle,nardos,calle,benito juarez,,,,,colonia,adolfo lopez mateos,,,,mexico                      ,luvianos,villa luvianos,0045,,,,fijo,2014-12,2480624,721112,36.0,,51440.0,15,123,1,12,18.91747558,-100.30060337
hotel el mirador,,hoteles con otros servicios integrados,0 a 5 personas,carretera,carretera jilotepec ixtlahuaca kilometro 9,otro (especifique),,otro (especifique),,otro (especifique),manzana 800,sn,,,,localidad,la abellana ejido de jilotepec,,,,mexico                      ,jilotepec,ejido de jilotepec,0244,,omarcj24@hotmail.com,,fijo,2016-01,6507385,721111,,,54240.0,15,45,110,2,19.91683365,-99.57101098
hotel el molino,,hoteles sin otros servicios integrados,0 a 5 personas,calle,independencia,calle,20 de noviembre,calle,abasolo,calle,jose maria morelos,,,,,rinconada,chalma,,,,mexico                      ,malinalco,chalma,0094,,,,fijo,2010-07,6266378,721112,127.0,,52440.0,15,52,8,32,18.93011366,-99.43533659
hotel el paraiso,,hoteles sin otros servicios integrados,0 a 5 personas,calle,leona vicario,calle,sebastian lerdo de tejada,,ninguno,calle,hermenegildo galeana,sn,,,,colonia,centro,,,,mexico                      ,san jose del rincon,san jose del rincon centro,0019,,,,fijo,2010-07,6266592,721112,,,50660.0,15,124,1,32,19.66037086,-100.15228849
hotel el penon,,hoteles sin otros servicios integrados,0 a 5 personas,avenida,del penon,avenida,canteros,cerrada,cuarta cerrada del penon,privada,segunda canteros,sn,,,,colonia,xochitenco,,,,mexico                      ,chimalhuacan,chimalhuacan,054a,,,,fijo,2010-07,6348506,721112,,,56330.0,15,31,1,19,19.418822100000003,-98.97514024
hotel el puerto,"grupo debacuera, s.a. de c.v.",hoteles sin otros servicios integrados,0 a 5 personas,avenida,del puerto,calle,manantiales,calle,llano verde,calle,francisco i. madero,sn,,,,colonia,san lorenzo chimalhuacan,,,,mexico                      ,chimalhuacan,chimalhuacan,0569,015551111683,,,fijo,2016-01,6720718,721112,,0.0,56340.0,15,31,1,7,19.41133714,-98.97788896
hotel el rebozo,hotel favai sa de cv,hoteles con otros servicios integrados,11 a 30 personas,continuacion,avandaro,continuacion,vega de las flores,,ninguno,calle,vega del valle,sn,,,,colonia,avandaro,,,,mexico                      ,valle de bravo,valle de bravo,0189,,,,fijo,2010-07,6355802,721111,,,51200.0,15,110,1,2,19.1533584,-100.12948208
hotel el salvador,,hoteles con otros servicios integrados,6 a 10 personas,calle,independencia,boulevard,bicentenario de la independencia,calle,galeana,calle,agustin de iturbide,,,,,barrio,san pedro,,,,mexico                      ,ixtapan de la sal,ixtapan de la sal,0089,7211430177,hotelelsalvadorixtapan@outlook.es,,fijo,2010-07,6357051,721111,77.0,,51900.0,15,40,1,9,18.84474691,-99.67042532
hotel el sol,,hoteles sin otros servicios integrados,0 a 5 personas,calle,a cuatitlan,calle,jose ramon beteta,,ninguno,,ninguno,sn,,,,barrio,de santiago,,,,mexico                      ,zumpango,zumpango de ocampo,0541,,,,fijo,2010-07,6265572,721112,,,55600.0,15,120,1,22,19.81049735,-99.11145792
hotel elva,,hoteles sin otros servicios integrados,0 a 5 personas,calle,libertad,calle,insurgentes,calle,aldama,calle,ignacio allende,sn,,,,colonia,zacatepec,,,,mexico                      ,tejupilco,tejupilco de hidalgo,0430,,,,fijo,2014-12,2482461,721112,,,51412.0,15,82,1,13,18.89207406,-100.14252421
hotel emmas emporio,hotel emmas emporio,hoteles sin otros servicios integrados,0 a 5 personas,calle,pedro cortes,calle,privada de pedro cortez,calle,el pipila,calle,margaritas,,,,,barrio,santa barbara,,,,mexico                      ,toluca,toluca de lerdo,2110,,,,fijo,2014-12,6266463,721112,210.0,,50050.0,15,106,1,3,19.29695148,-99.65643216
hotel emperador,,hoteles sin otros servicios integrados,0 a 5 personas,carretera,aquiles serdan,carretera,aquiles serdan,calle,reforma,calle,constitucion,,,,,colonia,centro,,,,mexico                      ,temoaya,temoaya,0070,,,,fijo,2010-07,6266711,721112,110.0,,50850.0,15,87,1,2,19.46924121,-99.59363087
hotel emporio,hotel emporio,hoteles con otros servicios integrados,0 a 5 personas,avenida,rancho grande,avenida,los dos arbolitos,calle,el farolito,avenida,bordo de xochiaca,sn,,,,colonia,benito juarez,,,,mexico                      ,nezahualcoyotl,ciudad nezahualcoyotl,0473,,,,fijo,2014-12,2255963,721111,,,57000.0,15,58,1,23,19.41654317,-99.00632848
hotel emporio,,hoteles sin otros servicios integrados,6 a 10 personas,avenida,"canteros, quetzalli",avenida,pantli,avenida,del penon,calle,peyotl,sn,,,,barrio,talabarteros,,,,mexico                      ,chimalhuacan,chimalhuacan,054a,,,,fijo,2016-01,6538005,721112,,,56357.0,15,31,1,42,19.42072171,-98.97581231
hotel erandi,,hoteles sin otros servicios integrados,6 a 10 personas,calle,industria minera,,ninguno,,3,avenida,industria automotriz,,,,,colonia,ejidos de san lorenzo tepaltitlan,,,,mexico                      ,toluca,san lorenzo tepaltitlan,4174,,,,fijo,2010-07,6266745,721112,512.0,,50010.0,15,106,75,31,19.3021424,-99.62495566
hotel express,,hoteles sin otros servicios integrados,6 a 10 personas,calle,paseo presidente adolfo lopez mateos,calle,morelos,calle,emiliano zapata,calle,adolfo lopez mateos,,,,,colonia,san luis mextepec,,,,mexico                      ,zinacantepec,san luis mextepec,0789,,,,fijo,2010-07,6355446,721112,400.0,,51355.0,15,118,60,17,19.2942908,-99.72584169
hotel fabela,hotel fabela,hoteles con otros servicios integrados,0 a 5 personas,avenida,isidro fabela norte,privada,velazquez,calle,licenciado isidro fabela sur,calle,ascension,,,,,colonia,centro,,,,mexico                      ,atlacomulco,atlacomulco de fabela,0322,7121220431,hotelfabela@hotmail.com,,fijo,2014-12,6266430,721111,306.0,,50454.0,15,14,1,33,19.79731529,-99.87474622
hotel farah,,hoteles sin otros servicios integrados,0 a 5 personas,avenida,benito juarez,avenida,melchor ocampo,calle,centenario,calle,galeana,,,,,barrio,del convento,,,,mexico                      ,sultepec,sultepec de pedro ascencio de alquisiras,0169,,,,fijo,2010-07,6266662,721112,4.0,,51600.0,15,80,1,16,18.85875294,-99.96506211
hotel fiesta inn,hotel fiesta inn fideicomiso / f1596,hoteles con otros servicios integrados,51 a 100 personas,carretera,carretera mexico queretaro km 32,privada,calzada miguel hidalgo,calle,ninguno,calle,mexico (cuautitlan),sn,,,,colonia,lecheria,,,,mexico                      ,tultitlan,buenavista,1769,5558994512,rhfiper@posadas.com,,fijo,2014-12,2237703,721111,,,54790.0,15,109,3,7,19.60864148,-99.18964314
hotel fiesta inn,operadora de hoteles y moteles de toluca sa de cv,hoteles con otros servicios integrados,31 a 50 personas,calle,ignacio allende,avenida,jose maria morelos y pavon,avenida,miguel hidalgo,calle,mariano matamoros,,,,,colonia,centro,,,,mexico                      ,toluca,toluca de lerdo,0453,7221678900,fernando.bello@posadas.com,www.fiestainn.com,fijo,2014-12,6266266,721111,124.0,,50000.0,15,106,1,9,19.28905953,-99.65578527
hotel fiesta inn ecatepec,fideicomiso f/1596 ,hoteles con otros servicios integrados,11 a 30 personas,calle,ninguno,avenida,central,avenida,ninguno,calle,paseo de las americas,sn,,,,colonia,centro comercial las americas,,las americas,sn,mexico                      ,ecatepec de morelos,ecatepec de morelos,4941,015558360300,,www.fibrahotel.com,fijo,2017-11,6813856,721111,1.0,,55076.0,15,33,1,5,19.58538733,-99.02481722
hotel fiesta inn naucalpan,fideicomiso f/1596 ,hoteles con otros servicios integrados,11 a 30 personas,periferico,via gustavo baz,calle,alce blanco,calle,calzada de la naranja,calle,9,,,,,colonia,naucalpan,,,,mexico                      ,naucalpan de juarez,naucalpan de juarez,139a,5553879910,,www.fibrahotel.com,fijo,2017-11,6801512,721111,53370.0,,53370.0,15,57,1,2,19.47958403,-99.23117153
hotel fiesta inn tlalnepantla,fideicomiso f/1596 ,hoteles con otros servicios integrados,11 a 30 personas,avenida,sor juana ines de la cruz,avenida,francisco villa,calle,dunant,avenida,mariano escobedo,,,,,colonia,tlalnepantla centro,,,,mexico                      ,tlalnepantla de baz,tlalnepantla,0393,5557294100,,www.fibrahotel.com,fijo,2010-07,6266576,721111,22.0,,54000.0,15,104,1,5,19.53892343,-99.20036905
hotel fiesta inn toluca aeropuerto,inmobiliaria modelo de jilotepec sa de cv,hoteles con otros servicios integrados,31 a 50 personas,boulevard,miguel aleman,calle,ninos heroes,calle,canaleja,calle,ninos heroes,,,,,colonia,san pedro totoltepec,,,,mexico                      ,toluca,san miguel totoltepec,2483,7222770900,gchfitoa@posadas.com,www.fiestainn.com,fijo,2014-12,2431405,721111,505.0,,50200.0,15,106,112,94,19.34006868,-99.58090559
hotel fiesta inn toluca tollocan,fideicomiso f/1596 ,hoteles con otros servicios integrados,51 a 100 personas,avenida,paseo tollocan,,francisco i. madero,,jose maria morelos y pavon,,jose maria pino suarez,,,,,colonia,santa ana tlapaltitlan,,,,mexico                      ,toluca,santa ana tlapaltitlan,4244,7722761000,,www.fibrahotel.com,fijo,2010-07,6354724,721111,1132.0,,50160.0,15,106,86,2,19.28756472,-99.62422337
hotel finca del sol,,hoteles con otros servicios integrados,0 a 5 personas,calle,calle a huehuetoca,calle,lindavista,cerrada,alvarez,calle,lindavista,,,,,barrio,santa maria caliacac,,,,mexico                      ,teoloyucan,teoloyucan,0069,5939145586,finca_sol25@hotmail.com,,fijo,2010-07,6265596,721111,77.0,,54770.0,15,91,1,1,19.76133698,-99.17874486
hotel finca la concordia,,hoteles con otros servicios integrados,0 a 5 personas,calle,hermenegildo galeana,calle,independencia,otro (especifique),ninguno,calle,independencia,sn,,,sn,colonia,centro,,,,mexico                      ,tejupilco,tejupilco de hidalgo,0110,7242673388,lola4357@gmail.com,www.fconcordia.com,fijo,2010-07,2525825,721111,,,51400.0,15,82,1,44,18.90530026,-100.15446505
hotel finca san fernando,,hoteles sin otros servicios integrados,0 a 5 personas,,ninguno,,isidro fabela,calle,quinta acapulco,calle,isidro fabela,sn,,,,barrio,el plan villa del carbon,,,,mexico                      ,villa del carbon,villa del carbon,0179,,,,fijo,2010-07,6355308,721112,,,54307.0,15,112,1,20,19.71857694,-99.45774728
hotel florencia,inmobiliaria san clodio sa de cv,hoteles con otros servicios integrados,11 a 30 personas,avenida,paseo tollocan,calle,san pedro,privada,ninguno,calle,independencia,,,,,colonia,san pedro totoltepec,,,,mexico                      ,san mateo atenco,san mateo atenco,0414,7222112131,hotelflorenciatoluca@hotmail.com,,fijo,2014-12,6355679,721111,1431.0,,50100.0,15,76,1,32,19.28705616,-99.56107067
hotel florida,hotelera las flores sa de cv,hoteles sin otros servicios integrados,11 a 30 personas,avenida,cuarta avenida (rayito de sol),avenida,monedita de oro,calle,las coronelas,avenida,doctor gustavo baz,,,,,colonia,benito juarez,,,,mexico                      ,nezahualcoyotl,ciudad nezahualcoyotl,0524,,,,fijo,2010-07,6265415,721112,82.0,,57000.0,15,58,1,30,19.41100793,-99.01074312
hotel francia,,hoteles sin otros servicios integrados,0 a 5 personas,calle,guadalupe victoria sur,calle,cuauhtemoc oriente,calle,benito juarez,calle,iturbide norte,,,,,barrio,capilla de jesus,,,313,mexico                      ,tenancingo,tenancingo de degollado,0063,,,,fijo,2010-07,6355791,721112,313.0,,52400.0,15,88,1,37,18.95805125,-99.5912098
hotel gabana,,hoteles con otros servicios integrados,0 a 5 personas,avenida,cuauhtemoc,avenida,chimalpain,calle,sur 23,calle,poniente 11-a,,,,,colonia,san miguel xico i seccion,,,,mexico                      ,valle de chalco solidaridad,xico,1065,5585550243,,,fijo,2010-07,6347296,721111,13.0,,56613.0,15,122,1,2,19.26257262,-98.95455368
hotel galeana,,hoteles sin otros servicios integrados,0 a 5 personas,calle,hermenegildo galeana,calle,nicolas bravo,calle,josefa ortiz de dominguez,calle,16 de septiembre,,,,,colonia,centro,,,,mexico                      ,tianguistenco,santiago tianguistenco de galeana,0141,,,,fijo,2010-07,6355684,721112,203.0,,52600.0,15,101,1,4,19.18071383,-99.46918574
hotel gallo,,hoteles con otros servicios integrados,6 a 10 personas,calle,gallo colorado,avenida,cuarta avenida,avenida,doctor gustavo baz,calle,faisan,,,,,colonia,benito juarez,,,,mexico                      ,nezahualcoyotl,ciudad nezahualcoyotl,0454,,,,fijo,2010-07,6265441,721111,290.0,,57000.0,15,58,1,18,19.41532935,-99.01526035
hotel garden plaza,inmobiliaria rodeiro sa de cv,hoteles con otros servicios integrados,11 a 30 personas,carretera,mexico-texcoco,calle,ninguno,carretera,mexico piramides,carretera,mexico piramides,,,,,colonia,santa maria chiconautla,,,,mexico                      ,ecatepec de morelos,ecatepec de morelos,4617,015526298653,facturacion@hotelgadenplaza,,fijo,2010-07,6265760,721111,12.0,,55066.0,15,33,1,44,19.61514167,-99.01957532
hotel ge,hoteleros del valle sa de cv,hoteles sin otros servicios integrados,0 a 5 personas,avenida,rosales,avenida,vega del llano,avenida,del carmen,,ninguno,sn,,,,hacienda,avandaro,,,,mexico                      ,valle de bravo,valle de bravo,0206,,,,fijo,2010-07,6266416,721112,,,51200.0,15,110,1,14,19.16110359,-100.12276131
hotel gemelos,,hoteles sin otros servicios integrados,0 a 5 personas,calle,silvano sanchez lovera,,ninguno,,ninguno,calle,nanche,sn,,,,rinconada,bejucos,,,,mexico                      ,tejupilco,bejucos,0411,,,,fijo,2010-07,6355314,721112,,,51430.0,15,82,22,28,18.77997264,-100.42378463
hotel giovanny,,hoteles sin otros servicios integrados,0 a 5 personas,,ixtapan de la sal-tonatico,,entrada a servicios administrativos,calle,terminal de autobuses,,ninguno,kilometro 3,,,,rinconada,salitre,,,,mexico                      ,ixtapan de la sal,el salitre,006a,,,,fijo,2014-12,6266398,721112,,,51950.0,15,40,13,21,18.82216,-99.66878
hotel girasol,,hoteles sin otros servicios integrados,0 a 5 personas,calle,benito juarez,calle,del libramiento,calle,ignacio allende,calle,alfredo del mazo,sn,,,,colonia,jaltepec,,,,mexico                      ,almoloya de alquisiras,almoloya de alquisiras,0044,,,,fijo,2010-07,6266661,721112,,,51860.0,15,4,1,68,18.86695715,-99.8918009
hotel goza pacific,,hoteles con otros servicios integrados,0 a 5 personas,calle,cama de piedra,calle,la mariquita,calle,rosita alvirez,avenida,chimalhuacan,,,,sn,colonia,benito juarez,,,,mexico                      ,nezahualcoyotl,ciudad nezahualcoyotl,083a,5511084423,iosdeapple@gmail.com,,fijo,2014-12,6265783,721111,188.0,,57000.0,15,58,1,6,19.39857253,-99.00472037
hotel gran via,inmobiliaria sa de cv,hoteles con otros servicios integrados,11 a 30 personas,carretera,via jose lopez portillo,carretera,tecnicos,calle,geranios,avenida,morelos,,,,,colonia,san francisco chilpan,,,,mexico                      ,tultitlan,buenavista,1720,,,,fijo,2010-07,6346788,721111,88.0,,54940.0,15,109,3,61,19.62045421,-99.16882271
hotel granada inn,hotel granada inn sa de cv,hoteles sin otros servicios integrados,11 a 30 personas,calle,via jose maria morelos,calle,de las flores,privada,morelos,privada,bugambilia,,,,,colonia,hogares mexicanos,,,,mexico                      ,ecatepec de morelos,ecatepec de morelos,0101,,,,fijo,2010-07,6346757,721112,56.0,,55040.0,15,33,1,44,19.59809294,-99.03617626
hotel grupo deno,,hoteles sin otros servicios integrados,0 a 5 personas,calle,tenango-tenancingo,,ninguno,,comonfort oriente,,adolfo lopez mateos sur,,,,,rinconada,san bartolome atlatlahuca,,,,mexico                      ,tenango del valle,san bartolome atlatlahuca,0324,,,,fijo,2010-07,6266538,721112,,,52320.0,15,90,6,5,19.06381304,-99.60313451
hotel hacienda,,hoteles sin otros servicios integrados,0 a 5 personas,calle,nezahualcoyotl oriente,,ninguno,calle,paseo de los insurgentes,calle,matamoros norte,,,,,colonia,centro,,,,mexico                      ,tenancingo,tenancingo de degollado,0114,,,,fijo,2010-07,6266632,721112,701.0,,52400.0,15,88,1,7,18.96560406,-99.58683326
hotel hacienda del angel,,hoteles sin otros servicios integrados,6 a 10 personas,calle,jocotitlan,,ninguno,,ninguno,,ninguno,,,,,barrio,barrio de san joaquin la cabecera,,,,mexico                      ,ixtlahuaca,barrio san joaquin la cabecera,0172,,,,fijo,2010-07,6266423,721112,,,50783.0,15,42,23,5,19.54756385,-99.75081996
hotel hazel,,hoteles sin otros servicios integrados,6 a 10 personas,avenida,adolfo lopez mateos (av. r-1),avenida,nezahualcoyotl,avenida,carril 2 oaxaca,calle,sonora,1,,,,colonia,ejidos de santa maria tulpetlac,,,,mexico                      ,ecatepec de morelos,ecatepec de morelos,3229,,,,fijo,2014-12,2306303,721112,1.0,,55400.0,15,33,1,48,19.56263183,-99.02060007
hotel hidalgo,,hoteles sin otros servicios integrados,6 a 10 personas,,ninguno,,miguel hidalgo,,ninguno,calle,riva palacio,sn,,,,colonia,centro,,,,mexico                      ,aculco,aculco de espinoza,0117,,,,fijo,2010-07,6266514,721112,,,50360.0,15,3,1,51,20.09909587,-99.82844593
hotel hidalgo,operadora hotelera puma sa de cv,hoteles sin otros servicios integrados,0 a 5 personas,avenida,miguel hidalgo,avenida,josefa ortiz de dominguez,calle,leona vicario,calle,primero de mayo,,,,,colonia,san sebastian,,,,mexico                      ,toluca,toluca de lerdo,0398,,,,fijo,2011-03,6355798,721112,615.0,,50090.0,15,106,1,16,19.29005418,-99.64622579
hotel hito jardin,,hoteles sin otros servicios integrados,11 a 30 personas,avenida,alfredo del mazo,avenida,de la independencia,calle,profesor gonzalez ortega,calle,maria curie,,,,,colonia,san juan buenavista,,,,mexico                      ,toluca,toluca de lerdo,0415,,,,fijo,2010-07,6356076,721112,303.0,,50070.0,15,106,1,31,19.29485236,-99.628029
hotel holiday inn express hotel & suites toluca zona aeropuerto,deutsche bank mexico sa ibm,hoteles con otros servicios integrados,31 a 50 personas,avenida,miguel aleman,,,,,,,,,,,parque industrial,lerma toluca,,,,mexico                      ,toluca,toluca de lerdo,0472,017222655100,,,fijo,2019-04,6876759,721111,55.0,,52000.0,15,106,1,3,19.2914017,-99.55671214
hotel holiday inn express toluca,hotel holiday inn express toluca sa ibm,hoteles con otros servicios integrados,31 a 50 personas,avenida,paseo tollocan,calle,juan aldama,calle,bahia de todos los santos,calle,bahia de todos los santos,,,,,colonia,santa ana tlapaltitlan,,,,mexico                      ,toluca,santa ana tlapaltitlan,423a,7222799999,claudia.lopez@hotelesprisma.com,,fijo,2014-12,6355164,721111,818.0,,50160.0,15,106,86,24,19.28763723,-99.62625449
hotel holiday inn express toluca paseo tollocan,deutsche bank mexico sa ibm,hoteles con otros servicios integrados,31 a 50 personas,avenida,paseo tollocan,,,,,,,,,,,colonia,santa ana tlapaltitlan,,,,mexico                      ,toluca,toluca de lerdo,423a,017222799999,,,fijo,2019-04,6876757,721111,818.0,,50160.0,15,106,1,25,19.28761075,-99.6253727
hotel hospedaje la terminal,,hoteles sin otros servicios integrados,0 a 5 personas,calle,morelos,carretera,orozco y berra,calle,alberto garduno,calle,guadalupe sanchez,sn,,,,colonia,centro,,plaza amparito,1,mexico                      ,san felipe del progreso,san felipe del progreso,0142,,,,fijo,2014-12,2463346,721112,,,50640.0,15,74,1,32,19.7155061,-99.95014042
hotel hostal de paola,hotel hostal de paola,hoteles sin otros servicios integrados,0 a 5 personas,boulevard,juan herrera y pina,boulevard,isidro fabela,calle,flor de hortensia,calle,flor de hortensia,,,,,colonia,el calvario,,,,mexico                      ,valle de bravo,valle de bravo,0193,,,,fijo,2010-07,6266421,721112,,,51200.0,15,110,1,54,19.20281926,-100.12967325
hotel huizache,,hoteles sin otros servicios integrados,0 a 5 personas,calle,primavera,,ninguno,calle,federal mexico-pachuca,privada,cerrada san juan,sn,,,,colonia,santa maria ajoloapan,,,,mexico                      ,tecamac,santa maria ajoloapan,0626,,,,fijo,2010-07,6420291,721112,,,55750.0,15,81,12,29,19.76950915,-98.97034812
hotel iberia,,hoteles sin otros servicios integrados,0 a 5 personas,calle,nezahualcoyotl,calle,constitucion,calle,fray pedro de gante,calle,cristobal colon,,,,,colonia,centro,,,,mexico                      ,texcoco,texcoco de mora,1309,,,,fijo,2010-07,6348226,721112,100.0,,56100.0,15,99,1,28,19.51377233,-98.88313583
hotel ibis mexico perinorte,accor mexico hotels sa de cv,hoteles con otros servicios integrados,31 a 50 personas,avenida,xalpa,,ninguno,,ninguno,,ninguno,,,,,colonia,la quebrada,,perinorte,sn,mexico                      ,cuautitlan izcalli,cuautitlan izcalli,1886,,,,fijo,2014-12,6311021,721111,2.0,,54769.0,15,121,1,37,19.60621804,-99.19029375
hotel ideal,,hoteles con otros servicios integrados,6 a 10 personas,boulevard,federal,avenida,arturo san roman,calle,federal,calle,ecologia,,,,,barrio,san gaspar,,,,mexico                      ,ixtapan de la sal,ixtapan de la sal,0036,7211430194,hotelidealpagos@gmail.com,,fijo,2010-07,6266823,721111,809.0,,51900.0,15,40,1,28,18.84990059,-99.68178723
